cortarNo,centerLat,centerLon,cortarName,cortarType
11,37.566427,126.977872,서울시,city
41,37.274939,127.008689,경기도,city
28,37.456054,126.705151,인천시,city
26,35.180143,129.075413,부산시,city
30,36.350465,127.384953,대전시,city
27,35.87139,128.601763,대구시,city
31,35.5386,129.311375,울산시,city
36,36.592907,127.292375,세종시,city
29,35.160032,126.851338,광주시,city
51,37.885399,127.72975,강원도,city
43,36.636149,127.491238,충청북도,city
44,36.63629,126.68957,충청남도,city
47,36.518504,128.437796,경상북도,city
48,35.238343,128.6924,경상남도,city
52,35.820433,127.108875,전북도,city
46,34.816358,126.462443,전라남도,city
50,33.488976,126.498238,제주도,city
11680,37.517408,127.047313,강남구,dvsn
11740,37.530126,127.123771,강동구,dvsn
11305,37.63974,127.025488,강북구,dvsn
11500,37.550985,126.849534,강서구,dvsn
11620,37.481021,126.951601,관악구,dvsn
11215,37.538617,127.082375,광진구,dvsn
11530,37.49551,126.887532,구로구,dvsn
11545,37.45196,126.902075,금천구,dvsn
11350,37.654286,127.056411,노원구,dvsn
11320,37.668768,127.047163,도봉구,dvsn
11230,37.574493,127.039765,동대문구,dvsn
11590,37.51245,126.9395,동작구,dvsn
11440,37.563517,126.9084,마포구,dvsn
11410,37.579225,126.9368,서대문구,dvsn
11650,37.483564,127.032594,서초구,dvsn
11200,37.563475,127.036838,성동구,dvsn
11290,37.5874,127.020729,성북구,dvsn
11710,37.514592,127.105863,송파구,dvsn
11470,37.517007,126.866546,양천구,dvsn
11560,37.526367,126.896213,영등포구,dvsn
11170,37.538825,126.96535,용산구,dvsn
11380,37.60278,126.929163,은평구,dvsn
11110,37.573025,126.979638,종로구,dvsn
11140,37.563842,126.9976,중구,dvsn
11260,37.606324,127.092584,중랑구,dvsn
41820,37.831171,127.509625,가평군,dvsn
41281,37.637433,126.832359,고양시 덕양구,dvsn
41285,37.65879,126.775025,고양시 일산동구,dvsn
41287,37.675103,126.750578,고양시 일산서구,dvsn
41290,37.429201,126.987638,과천시,dvsn
41210,37.478587,126.864548,광명시,dvsn
41610,37.417461,127.255924,광주시,dvsn
41310,37.594409,127.129581,구리시,dvsn
41410,37.36161,126.935331,군포시,dvsn
41570,37.615267,126.715621,김포시,dvsn
41360,37.636032,127.216646,남양주시,dvsn
41250,37.903722,127.060579,동두천시,dvsn
41194,37.480072,126.79993,부천시 소사구,dvsn
41196,37.528519,126.79556,부천시 오정구,dvsn
41192,37.496596,126.787111,부천시 원미구,dvsn
41135,37.38282,127.118926,성남시 분당구,dvsn
41131,37.450396,127.145634,성남시 수정구,dvsn
41133,37.430523,127.13721,성남시 중원구,dvsn
41113,37.257607,126.971893,수원시 권선구,dvsn
41117,37.259116,127.046336,수원시 영통구,dvsn
41111,37.30416,127.010226,수원시 장안구,dvsn
41115,37.286537,127.035711,수원시 팔달구,dvsn
41390,37.380174,126.802938,시흥시,dvsn
41273,37.319537,126.811832,안산시 단원구,dvsn
41271,37.30114,126.845167,안산시 상록구,dvsn
41550,37.008018,127.279695,안성시,dvsn
41173,37.392574,126.951354,안양시 동안구,dvsn
41171,37.386649,126.932325,안양시 만안구,dvsn
41630,37.784952,127.045496,양주시,dvsn
41830,37.491776,127.487563,양평군,dvsn
41670,37.298342,127.637088,여주시,dvsn
41800,38.096872,127.075059,연천군,dvsn
41370,37.149889,127.077461,오산시,dvsn
41463,37.280156,127.114666,용인시 기흥구,dvsn
41465,37.322167,127.097962,용인시 수지구,dvsn
41461,37.234398,127.201597,용인시 처인구,dvsn
41430,37.344887,126.968279,의왕시,dvsn
41150,37.737933,127.033899,의정부시,dvsn
41500,37.278246,127.440997,이천시,dvsn
41480,37.7599,126.77976,파주시,dvsn
41220,36.992368,127.112763,평택시,dvsn
41650,37.894867,127.20024,포천시,dvsn
41450,37.539301,127.214874,하남시,dvsn
41590,37.199568,126.831325,화성시,dvsn
28710,37.746435,126.488025,강화군,dvsn
28245,37.53756,126.737771,계양구,dvsn
28200,37.447314,126.731574,남동구,dvsn
28140,37.473834,126.643244,동구,dvsn
28177,37.463418,126.650556,미추홀구,dvsn
28237,37.506817,126.721713,부평구,dvsn
28260,37.545441,126.675877,서구,dvsn
28185,37.410168,126.67828,연수구,dvsn
28720,37.256001,126.483907,옹진군,dvsn
28110,37.4737,126.621571,중구,dvsn
26440,35.212035,128.980525,강서구,dvsn
26410,35.243068,129.0921,금정구,dvsn
26710,35.244507,129.222173,기장군,dvsn
26290,35.136649,129.084175,남구,dvsn
26170,35.13904,129.0569,동구,dvsn
26260,35.205001,129.083625,동래구,dvsn
26230,35.162874,129.053137,부산진구,dvsn
26320,35.197185,128.990438,북구,dvsn
26530,35.152624,128.99125,사상구,dvsn
26380,35.104476,128.974763,사하구,dvsn
26140,35.097582,129.023425,서구,dvsn
26500,35.14564,129.113075,수영구,dvsn
26470,35.176235,129.079762,연제구,dvsn
26200,35.091199,129.067875,영도구,dvsn
26110,35.10619,129.032338,중구,dvsn
26350,35.163207,129.1637,해운대구,dvsn
30230,36.346724,127.415501,대덕구,dvsn
30110,36.3271,127.432663,동구,dvsn
30170,36.355465,127.383766,서구,dvsn
30200,36.362322,127.356268,유성구,dvsn
30140,36.325808,127.421363,중구,dvsn
27200,35.846024,128.597613,남구,dvsn
27290,35.829983,128.532775,달서구,dvsn
27710,35.7746,128.43145,달성군,dvsn
27140,35.886649,128.6355,동구,dvsn
27230,35.885674,128.582838,북구,dvsn
27170,35.871757,128.559175,서구,dvsn
27260,35.858215,128.630587,수성구,dvsn
27110,35.86934,128.606188,중구,dvsn
27720,36.242942,128.572656,군위군,dvsn
31140,35.543825,129.329938,남구,dvsn
31170,35.504954,129.416673,동구,dvsn
31200,35.582708,129.361375,북구,dvsn
31710,35.533817,129.294975,울주군,dvsn
31110,35.56945,129.3327,중구,dvsn
36110,36.592907,127.292375,세종시,dvsn
29200,35.139524,126.793688,광산구,dvsn
29155,35.122124,126.90805,남구,dvsn
29110,35.145999,126.923312,동구,dvsn
29170,35.17406,126.911963,북구,dvsn
29140,35.152699,126.891275,서구,dvsn
51150,37.752049,128.875832,강릉시,dvsn
51820,38.380698,128.467902,고성군,dvsn
51170,37.524714,129.114191,동해시,dvsn
51230,37.450018,129.165125,삼척시,dvsn
51210,38.207093,128.591987,속초시,dvsn
51800,38.109624,127.990113,양구군,dvsn
51830,38.07545,128.619,양양군,dvsn
51750,37.183769,128.461852,영월군,dvsn
51130,37.340688,127.921637,원주시,dvsn
51810,38.069725,128.17025,인제군,dvsn
51770,37.380607,128.660875,정선군,dvsn
51780,38.146682,127.313063,철원군,dvsn
51110,37.881324,127.730075,춘천시,dvsn
51190,37.164232,128.985713,태백시,dvsn
51760,37.370744,128.390066,평창군,dvsn
51720,37.697204,127.888517,홍천군,dvsn
51790,38.105933,127.707885,화천군,dvsn
51730,37.491843,127.985088,횡성군,dvsn
43760,36.815341,127.78659,괴산군,dvsn
43800,36.984774,128.365442,단양군,dvsn
43720,36.489422,127.729667,보은군,dvsn
43740,36.175026,127.783425,영동군,dvsn
43730,36.306441,127.571262,옥천군,dvsn
43770,36.93996,127.690508,음성군,dvsn
43150,37.132649,128.190925,제천시,dvsn
43745,36.785025,127.580988,증평군,dvsn
43750,36.855422,127.43561,진천군,dvsn
43111,36.634745,127.488601,청주시 상당구,dvsn
43112,36.63769,127.469488,청주시 서원구,dvsn
43114,36.651581,127.486671,청주시 청원구,dvsn
43113,36.641475,127.431534,청주시 흥덕구,dvsn
43130,36.991115,127.925896,충주시,dvsn
44250,36.274617,127.248625,계룡시,dvsn
44150,36.44656,127.119025,공주시,dvsn
44710,36.108857,127.488213,금산군,dvsn
44230,36.18724,127.098623,논산시,dvsn
44270,36.893649,126.628163,당진시,dvsn
44180,36.333412,126.61279,보령시,dvsn
44760,36.275658,126.909775,부여군,dvsn
44210,36.784808,126.4503,서산시,dvsn
44770,36.080283,126.691763,서천군,dvsn
44200,36.789831,127.002103,아산시,dvsn
44810,36.68266,126.848888,예산군,dvsn
44131,36.755923,127.214322,천안시 동남구,dvsn
44133,36.882797,127.182452,천안시 서북구,dvsn
44790,36.459151,126.802238,청양군,dvsn
44825,36.74561,126.297913,태안군,dvsn
44800,36.601324,126.660775,홍성군,dvsn
47290,35.825092,128.74135,경산시,dvsn
47130,35.856258,129.224756,경주시,dvsn
47830,35.725968,128.262688,고령군,dvsn
47190,36.119549,128.344188,구미시,dvsn
47150,36.139772,128.113615,김천시,dvsn
47280,36.586515,128.186588,문경시,dvsn
47920,36.893151,128.732584,봉화군,dvsn
47250,36.411007,128.15905,상주시,dvsn
47840,35.919176,128.282963,성주군,dvsn
47170,36.568483,128.729537,안동시,dvsn
47770,36.415099,129.365325,영덕군,dvsn
47760,36.666693,129.112275,영양군,dvsn
47210,36.805667,128.624063,영주시,dvsn
47230,35.97326,128.938613,영천시,dvsn
47900,36.657708,128.452868,예천군,dvsn
47940,37.543775,130.905775,울릉군,dvsn
47930,36.993085,129.4004,울진군,dvsn
47730,36.352706,128.697041,의성군,dvsn
47820,35.647399,128.733988,청도군,dvsn
47750,36.436285,129.056987,청송군,dvsn
47850,35.995593,128.401688,칠곡군,dvsn
47111,36.008767,129.359475,포항시 남구,dvsn
47113,36.041867,129.365688,포항시 북구,dvsn
48310,34.880457,128.621175,거제시,dvsn
48880,35.686698,127.909534,거창군,dvsn
48820,34.973098,128.322264,고성군,dvsn
48250,35.228618,128.889238,김해시,dvsn
48840,34.837707,127.892475,남해군,dvsn
48270,35.503833,128.7467,밀양시,dvsn
48240,35.003656,128.06435,사천시,dvsn
48860,35.415557,127.873463,산청군,dvsn
48330,35.335008,129.036913,양산시,dvsn
48720,35.322258,128.261675,의령군,dvsn
48170,35.180328,128.107654,진주시,dvsn
48740,35.544623,128.492208,창녕군,dvsn
48125,35.197135,128.567838,창원시 마산합포구,dvsn
48127,35.220954,128.579712,창원시 마산회원구,dvsn
48123,35.198404,128.702942,창원시 성산구,dvsn
48121,35.254028,128.640147,창원시 의창구,dvsn
48129,35.13289,128.710087,창원시 진해구,dvsn
48220,34.85439,128.433112,통영시,dvsn
48850,35.067333,127.751275,하동군,dvsn
48730,35.272333,128.406575,함안군,dvsn
48870,35.52053,127.725218,함양군,dvsn
48890,35.566665,128.165688,합천군,dvsn
52790,35.435835,126.702063,고창군,dvsn
52130,35.967718,126.736638,군산시,dvsn
52210,35.803583,126.8809,김제시,dvsn
52190,35.416432,127.390438,남원시,dvsn
52730,36.006842,127.660838,무주군,dvsn
52800,35.731568,126.733513,부안군,dvsn
52770,35.374474,127.137375,순창군,dvsn
52710,35.904708,127.162019,완주군,dvsn
52140,35.94826,126.9578,익산시,dvsn
52750,35.611077,127.282658,임실군,dvsn
52740,35.647299,127.521113,장수군,dvsn
52113,35.8294,127.134362,전주시 덕진구,dvsn
52111,35.812208,127.11985,전주시 완산구,dvsn
52180,35.569867,126.856038,정읍시,dvsn
52720,35.7918,127.4249,진안군,dvsn
46810,34.64209,126.7672,강진군,dvsn
46770,34.61103,127.284921,고흥군,dvsn
46720,35.282017,127.291978,곡성군,dvsn
46230,34.940658,127.695899,광양시,dvsn
46730,35.202539,127.462864,구례군,dvsn
46170,35.0159,126.7108,나주시,dvsn
46710,35.321175,126.988175,담양군,dvsn
46110,34.811849,126.3922,목포시,dvsn
46840,34.990489,126.481712,무안군,dvsn
46780,34.771466,127.079886,보성군,dvsn
46150,34.950703,127.487243,순천시,dvsn
46910,34.833626,126.351124,신안군,dvsn
46130,34.760425,127.662313,여수시,dvsn
46870,35.277213,126.512014,영광군,dvsn
46830,34.800164,126.696796,영암군,dvsn
46890,34.311039,126.754852,완도군,dvsn
46880,35.301906,126.7848,장성군,dvsn
46800,34.681667,126.906967,장흥군,dvsn
46900,34.486818,126.263475,진도군,dvsn
46860,35.065929,126.516582,함평군,dvsn
46820,34.573558,126.599225,해남군,dvsn
46790,35.064542,126.986488,화순군,dvsn
50130,33.255592,126.510575,서귀포시,dvsn
50110,33.499568,126.531138,제주시,dvsn
11680103,37.482968,127.0634,개포동,sec
11680108,37.513583,127.031375,논현동,sec
11680106,37.49911,127.065463,대치동,sec
11680118,37.488143,127.04505,도곡동,sec
11680105,37.514792,127.055387,삼성동,sec
11680111,37.46436,127.1046,세곡동,sec
11680115,37.488856,127.104886,수서동,sec
11680107,37.524142,127.0229,신사동,sec
11680110,37.5291,127.0236,압구정동,sec
11680101,37.499776,127.03895,역삼동,sec
11680113,37.4717,127.1114,율현동,sec
11680114,37.487485,127.081638,일원동,sec
11680112,37.4766,127.101,자곡동,sec
11680104,37.525492,127.05235,청담동,sec
11740110,37.569397,127.177814,강일동,sec
11740102,37.5653,127.1561,고덕동,sec
11740105,37.5379,127.14595,길동,sec
11740106,37.5263,127.143,둔촌동,sec
11740101,37.548692,127.1497,명일동,sec
11740103,37.551582,127.165516,상일동,sec
11740108,37.530483,127.1289,성내동,sec
11740107,37.557925,127.130838,암사동,sec
11740109,37.543217,127.12665,천호동,sec
11305101,37.6222,127.0208,미아동,sec
11305102,37.629215,127.037013,번동,sec
11305103,37.6371,127.0046,수유동,sec
11305104,37.6633,127.002,우이동,sec
11500104,37.5681,126.8454,가양동,sec
11500110,37.5874,126.8068,개화동,sec
11500108,37.558767,126.810363,공항동,sec
11500111,37.5662,126.7872,과해동,sec
11500106,37.5535,126.8354,내발산동,sec
11500102,37.5518,126.8612,등촌동,sec
11500105,37.5738,126.8304,마곡동,sec
11500109,37.577333,126.813325,방화동,sec
11500101,37.55376,126.87097,염창동,sec
11500112,37.5534,126.784,오곡동,sec
11500113,37.5435,126.7984,오쇠동,sec
11500107,37.5494,126.8207,외발산동,sec
11500103,37.5421,126.844525,화곡동,sec
11620103,37.474539,126.977837,남현동,sec
11620101,37.4753,126.9567,봉천동,sec
11620102,37.4632,126.9346,신림동,sec
11215104,37.546892,127.103025,광장동,sec
11215103,37.543983,127.088337,구의동,sec
11215109,37.555122,127.075837,군자동,sec
11215102,37.55378,127.080499,능동,sec
11215105,37.533214,127.076006,자양동,sec
11215101,37.5631,127.0876,중곡동,sec
11215107,37.5465,127.0713,화양동,sec
11530103,37.483351,126.887738,가리봉동,sec
11530107,37.494393,126.856813,개봉동,sec
11530106,37.5024,126.8598,고척동,sec
11530102,37.4937,126.8823,구로동,sec
11530109,37.5009,126.8277,궁동,sec
11530101,37.507766,126.880583,신도림동,sec
11530108,37.492143,126.838375,오류동,sec
11530110,37.4938,126.8207,온수동,sec
11530111,37.4802,126.8391,천왕동,sec
11530112,37.481,126.8258,항동,sec
11545101,37.476904,126.891732,가산동,sec
11545102,37.466185,126.9002,독산동,sec
11545103,37.4496,126.9115,시흥동,sec
11350103,37.6306,127.0877,공릉동,sec
11350105,37.6669,127.0724,상계동,sec
11350102,37.629374,127.054275,월계동,sec
11350106,37.650874,127.0811,중계동,sec
11350104,37.638249,127.073575,하계동,sec
11320108,37.6853,127.0301,도봉동,sec
11320106,37.664774,127.0337,방학동,sec
11320105,37.6526,127.0249,쌍문동,sec
11320107,37.64639,127.044913,창동,sec
11230105,37.57,127.0564,답십리동,sec
11230101,37.573942,127.024625,신설동,sec
11230102,37.5758,127.0362,용두동,sec
11230110,37.5996,127.0624,이문동,sec
11230106,37.5711,127.0714,장안동,sec
11230104,37.5803,127.0567,전농동,sec
11230103,37.5847,127.0371,제기동,sec
11230107,37.5882,127.0464,청량리동,sec
11230108,37.590808,127.055313,회기동,sec
11230109,37.588574,127.0627,휘경동,sec
11590101,37.5115,126.9416,노량진동,sec
11590108,37.508133,126.92635,대방동,sec
11590106,37.494973,126.976016,동작동,sec
11590104,37.513058,126.956088,본동,sec
11590107,37.4853,126.9719,사당동,sec
11590103,37.506842,126.951,상도1동,sec
11590102,37.4991,126.9437,상도동,sec
11590109,37.4921,126.9172,신대방동,sec
11590105,37.5052,126.9629,흑석동,sec
11440102,37.547533,126.952988,공덕동,sec
11440113,37.545985,126.932288,구수동,sec
11440110,37.5541,126.938,노고산동,sec
11440118,37.543,126.9193,당인동,sec
11440108,37.554441,126.944187,대흥동,sec
11440104,37.5376,126.950213,도화동,sec
11440121,37.558627,126.92379,동교동,sec
11440107,37.537192,126.943975,마포동,sec
11440123,37.5561,126.9016,망원동,sec
11440115,37.5469,126.9241,상수동,sec
11440127,37.577606,126.889111,상암동,sec
11440120,37.552458,126.920925,서교동,sec
11440125,37.566067,126.9055,성산동,sec
11440103,37.542233,126.955463,신공덕동,sec
11440111,37.546862,126.934526,신수동,sec
11440117,37.543392,126.930513,신정동,sec
11440101,37.5546,126.9561,아현동,sec
11440124,37.564501,126.922027,연남동,sec
11440109,37.547083,126.94565,염리동,sec
11440105,37.541833,126.941625,용강동,sec
11440126,37.571725,126.9055,중동,sec
11440114,37.5501,126.93,창전동,sec
11440106,37.5385,126.939688,토정동,sec
11440116,37.543828,126.927922,하중동,sec
11440122,37.549433,126.905725,합정동,sec
11440112,37.5419,126.9345,현석동,sec
11410120,37.576192,126.921263,남가좌동,sec
11410105,37.5672,126.9628,냉천동,sec
11410113,37.559527,126.9435,대신동,sec
11410112,37.561,126.947,대현동,sec
11410104,37.5634,126.9673,미근동,sec
11410115,37.5727,126.9471,봉원동,sec
11410119,37.579542,126.910788,북가좌동,sec
11410110,37.563825,126.954525,북아현동,sec
11410114,37.5651,126.9391,신촌동,sec
11410117,37.572425,126.93255,연희동,sec
11410108,37.570583,126.957866,영천동,sec
11410107,37.569179,126.95908,옥천동,sec
11410116,37.557802,126.939513,창천동,sec
11410106,37.567365,126.95868,천연동,sec
11410101,37.564842,126.9638,충정로2가,sec
11410102,37.5623,126.9621,충정로3가,sec
11410103,37.5614,126.9659,합동,sec
11410109,37.574,126.954,현저동,sec
11410118,37.5931,126.9375,홍은동,sec
11410111,37.5872,126.9468,홍제동,sec
11650109,37.454929,127.06378,내곡동,sec
11650107,37.5047,127.0019,반포동,sec
11650101,37.484265,126.98864,방배동,sec
11650108,37.488518,127.016437,서초동,sec
11650111,37.4448,127.0641,신원동,sec
11650102,37.470101,127.039888,양재동,sec
11650110,37.4632,127.0539,염곡동,sec
11650103,37.471582,127.026744,우면동,sec
11650104,37.4452,127.0476,원지동,sec
11650106,37.514951,127.014219,잠원동,sec
11200109,37.553,127.0263,금호동1가,sec
11200110,37.553808,127.01885,금호동2가,sec
11200111,37.5498,127.0193,금호동3가,sec
11200112,37.545181,127.022949,금호동4가,sec
11200104,37.563016,127.034374,도선동,sec
11200105,37.566325,127.045388,마장동,sec
11200106,37.561217,127.045875,사근동,sec
11200101,37.568275,127.0247,상왕십리동,sec
11200114,37.543225,127.041425,성수동1가,sec
11200115,37.539817,127.056888,성수동2가,sec
11200118,37.554522,127.0696,송정동,sec
11200113,37.5419,127.016,옥수동,sec
11200122,37.564062,127.055552,용답동,sec
11200108,37.553283,127.033563,응봉동,sec
11200102,37.564158,127.028675,하왕십리동,sec
11200107,37.559,127.0348,행당동,sec
11200103,37.56695,127.031975,홍익동,sec
11290134,37.608332,127.0228,길음동,sec
11290103,37.5974,127.0207,돈암동,sec
11290116,37.592307,127.0184,동선동1가,sec
11290117,37.590249,127.019538,동선동2가,sec
11290118,37.593899,127.020538,동선동3가,sec
11290119,37.595109,127.018781,동선동4가,sec
11290120,37.5962,127.0166,동선동5가,sec
11290104,37.590199,127.007163,동소문동1가,sec
11290105,37.588794,127.00808,동소문동2가,sec
11290106,37.590371,127.011567,동소문동3가,sec
11290107,37.591846,127.010553,동소문동4가,sec
11290108,37.59149,127.015017,동소문동5가,sec
11290109,37.59359,127.014213,동소문동6가,sec
11290110,37.5964,127.0142,동소문동7가,sec
11290130,37.586477,127.019558,보문동1가,sec
11290131,37.585828,127.018186,보문동2가,sec
11290132,37.583874,127.015813,보문동3가,sec
11290126,37.582882,127.021332,보문동4가,sec
11290127,37.582588,127.020107,보문동5가,sec
11290128,37.580475,127.018825,보문동6가,sec
11290129,37.579733,127.022225,보문동7가,sec
11290111,37.5845,127.0082,삼선동1가,sec
11290112,37.584,127.0114,삼선동2가,sec
11290113,37.586557,127.013,삼선동3가,sec
11290114,37.589797,127.013302,삼선동4가,sec
11290115,37.5885,127.0158,삼선동5가,sec
11290137,37.605757,127.048125,상월곡동,sec
11290139,37.608,127.0611,석관동,sec
11290101,37.5969,126.9922,성북동,sec
11290102,37.5894,127.0038,성북동1가,sec
11290121,37.588695,127.022239,안암동1가,sec
11290122,37.586732,127.023,안암동2가,sec
11290123,37.583882,127.0231,안암동3가,sec
11290124,37.580392,127.024663,안암동4가,sec
11290125,37.588815,127.03005,안암동5가,sec
11290138,37.6157,127.0501,장위동,sec
11290133,37.6169,126.9974,정릉동,sec
11290135,37.5966,127.0333,종암동,sec
11290136,37.604407,127.0387,하월곡동,sec
11710107,37.495301,127.1186,가락동,sec
11710113,37.489351,127.147175,거여동,sec
11710114,37.49746,127.153625,마천동,sec
11710108,37.4854,127.1221,문정동,sec
11710111,37.51506,127.122999,방이동,sec
11710106,37.502717,127.092513,삼전동,sec
11710105,37.503592,127.1037,석촌동,sec
11710104,37.504983,127.11465,송파동,sec
11710102,37.517425,127.101844,신천동,sec
11710112,37.504774,127.134595,오금동,sec
11710101,37.5111,127.0851,잠실동,sec
11710109,37.478842,127.135859,장지동,sec
11710103,37.533267,127.11485,풍납동,sec
11470102,37.5366,126.8759,목동,sec
11470103,37.527925,126.8342,신월동,sec
11470101,37.516433,126.8632,신정동,sec
11560117,37.5347,126.9065,당산동,sec
11560111,37.5216,126.8985,당산동1가,sec
11560112,37.5225,126.8936,당산동2가,sec
11560113,37.5261,126.8971,당산동3가,sec
11560114,37.529,126.8991,당산동4가,sec
11560115,37.5323,126.9009,당산동5가,sec
11560116,37.535,126.9024,당산동6가,sec
11560133,37.4967,126.9011,대림동,sec
11560118,37.5084,126.8994,도림동,sec
11560119,37.511847,126.897857,문래동1가,sec
11560120,37.5126,126.8929,문래동2가,sec
11560121,37.517008,126.895338,문래동3가,sec
11560122,37.51455,126.889875,문래동4가,sec
11560123,37.5161,126.8849,문래동5가,sec
11560124,37.5201,126.8845,문래동6가,sec
11560132,37.505933,126.911537,신길동,sec
11560134,37.532585,126.885165,양평동,sec
11560125,37.5232,126.8886,양평동1가,sec
11560126,37.523067,126.883563,양평동2가,sec
11560127,37.5296,126.8918,양평동3가,sec
11560128,37.53635,126.89605,양평동4가,sec
11560129,37.539,126.8925,양평동5가,sec
11560130,37.541883,126.889838,양평동6가,sec
11560131,37.5488,126.8883,양화동,sec
11560110,37.52139,126.931083,여의도동,sec
11560101,37.5134,126.9061,영등포동,sec
11560102,37.517703,126.912625,영등포동1가,sec
11560103,37.5208,126.9117,영등포동2가,sec
11560104,37.518,126.9082,영등포동3가,sec
11560105,37.518,126.903625,영등포동4가,sec
11560106,37.5211,126.9066,영등포동5가,sec
11560107,37.5216,126.9032,영등포동6가,sec
11560108,37.5242,126.907,영등포동7가,sec
11560109,37.5289,126.9053,영등포동8가,sec
11170104,37.5425,126.9719,갈월동,sec
11170105,37.545742,126.974775,남영동,sec
11170120,37.5388,126.9561,도원동,sec
11170132,37.5237,126.9957,동빙고동,sec
11170107,37.5517,126.9727,동자동,sec
11170122,37.537,126.969088,문배동,sec
11170136,37.526342,127.000175,보광동,sec
11170115,37.5353,126.9513,산천동,sec
11170108,37.5525,126.9664,서계동,sec
11170133,37.520458,126.994663,서빙고동,sec
11170123,37.5358,126.9667,신계동,sec
11170114,37.5358,126.9547,신창동,sec
11170121,37.537511,126.960325,용문동,sec
11170106,37.5401,126.977,용산동1가,sec
11170102,37.54295,126.98405,용산동2가,sec
11170126,37.532,126.9768,용산동3가,sec
11170103,37.5306,126.9854,용산동4가,sec
11170127,37.5257,126.9747,용산동5가,sec
11170135,37.5169,126.984,용산동6가,sec
11170112,37.5398,126.9673,원효로1가,sec
11170113,37.536733,126.963263,원효로2가,sec
11170117,37.5344,126.9581,원효로3가,sec
11170118,37.5328,126.9504,원효로4가,sec
11170129,37.5187,126.9662,이촌동,sec
11170130,37.5389,126.9913,이태원동,sec
11170134,37.5229,127.000225,주성동,sec
11170116,37.534227,126.946829,청암동,sec
11170109,37.5488,126.9674,청파동1가,sec
11170110,37.5462,126.9667,청파동2가,sec
11170111,37.5432,126.9668,청파동3가,sec
11170124,37.5362,126.973488,한강로1가,sec
11170125,37.5313,126.9693,한강로2가,sec
11170128,37.5278,126.9602,한강로3가,sec
11170131,37.5375,127.0061,한남동,sec
11170119,37.541683,126.961325,효창동,sec
11170101,37.548638,126.978134,후암동,sec
11380104,37.620974,126.912925,갈현동,sec
11380105,37.611746,126.910389,구산동,sec
11380102,37.60273,126.93475,녹번동,sec
11380106,37.614165,126.920813,대조동,sec
11380103,37.6192,126.9354,불광동,sec
11380101,37.58414,126.897541,수색동,sec
11380109,37.596,126.9083,신사동,sec
11380108,37.605,126.9148,역촌동,sec
11380107,37.5926,126.9215,응암동,sec
11380110,37.584306,126.90704,증산동,sec
11380114,37.638627,126.91895,진관동,sec
11110146,37.582583,126.984525,가회동,sec
11110129,37.573714,126.983046,견지동,sec
11110134,37.575067,126.98595,경운동,sec
11110148,37.5804,126.987,계동,sec
11110127,37.5711,126.9828,공평동,sec
11110155,37.5691,126.9906,관수동,sec
11110135,37.569176,126.985857,관철동,sec
11110128,37.573917,126.98465,관훈동,sec
11110176,37.571867,126.961998,교남동,sec
11110180,37.571407,126.961257,교북동,sec
11110182,37.6179,126.9574,구기동,sec
11110103,37.584886,126.972359,궁정동,sec
11110131,37.576087,126.991705,권농동,sec
11110137,37.5725,126.9885,낙원동,sec
11110118,37.5733,126.972,내수동,sec
11110114,37.5754,126.9716,내자동,sec
11110109,37.5804,126.9623,누상동,sec
11110110,37.579183,126.968175,누하동,sec
11110117,37.571558,126.973778,당주동,sec
11110116,37.572704,126.97463,도렴동,sec
11110153,37.572011,126.990594,돈의동,sec
11110168,37.5813,127.005,동숭동,sec
11110170,37.5891,126.9975,명륜1가,sec
11110171,37.5846,126.9988,명륜2가,sec
11110173,37.5875,126.9931,명륜3가,sec
11110172,37.582142,126.9998,명륜4가,sec
11110151,37.572531,126.991792,묘동,sec
11110187,37.576008,126.958098,무악동,sec
11110152,37.572353,126.992965,봉익동,sec
11110184,37.59244,126.964047,부암동,sec
11110144,37.577215,126.980529,사간동,sec
11110115,37.575363,126.965777,사직동,sec
11110140,37.59,126.9817,삼청동,sec
11110123,37.569482,126.98026,서린동,sec
11110119,37.5795,126.9768,세종로,sec
11110142,37.5795,126.980775,소격동,sec
11110178,37.570159,126.965259,송월동,sec
11110145,37.5768,126.9817,송현동,sec
11110124,37.5737,126.9806,수송동,sec
11110175,37.5762,127.0193,숭인동,sec
11110102,37.5845,126.9678,신교동,sec
11110120,37.570353,126.974025,신문로1가,sec
11110121,37.570792,126.968813,신문로2가,sec
11110186,37.60294,126.9621,신영동,sec
11110141,37.5773,126.9829,안국동,sec
11110166,37.5786,126.9995,연건동,sec
11110160,37.5737,127.0002,연지동,sec
11110158,37.569487,126.998409,예지동,sec
11110111,37.5836,126.9625,옥인동,sec
11110130,37.582,126.993,와룡동,sec
11110132,37.5764,126.9883,운니동,sec
11110159,37.5755,126.9975,원남동,sec
11110149,37.584162,126.988034,원서동,sec
11110165,37.577008,127.004338,이화동,sec
11110133,37.574567,126.9894,익선동,sec
11110136,37.5717,126.986,인사동,sec
11110157,37.5725,126.9979,인의동,sec
11110154,37.569216,126.994201,장사동,sec
11110147,37.5781,126.985125,재동,sec
11110107,37.575264,126.973889,적선동,sec
11110126,37.570674,126.980286,종로1가,sec
11110138,37.570741,126.986256,종로2가,sec
11110156,37.570361,126.99234,종로3가,sec
11110161,37.57067,126.997927,종로4가,sec
11110163,37.570633,127.0036,종로5가,sec
11110164,37.5719,127.0076,종로6가,sec
11110125,37.575174,126.979904,중학동,sec
11110105,37.5806,126.9721,창성동,sec
11110174,37.5758,127.012063,창신동,sec
11110101,37.589008,126.968465,청운동,sec
11110122,37.571515,126.980246,청진동,sec
11110112,37.578,126.9707,체부동,sec
11110167,37.574842,127.006125,충신동,sec
11110106,37.5784,126.972638,통의동,sec
11110108,37.579797,126.970016,통인동,sec
11110139,37.582817,126.9804,팔판동,sec
11110177,37.567967,126.9668,평동,sec
11110183,37.605364,126.966884,평창동,sec
11110113,37.576859,126.967655,필운동,sec
11110181,37.573608,126.9621,행촌동,sec
11110169,37.583383,127.001369,혜화동,sec
11110185,37.6006,126.9564,홍지동,sec
11110179,37.571138,126.964104,홍파동,sec
11110143,37.5806,126.9828,화동,sec
11110104,37.582683,126.971848,효자동,sec
11110162,37.573267,127.003013,효제동,sec
11110150,37.5742,126.9943,훈정동,sec
11140145,37.565,127.0051,광희동1가,sec
11140146,37.5641,127.0084,광희동2가,sec
11140106,37.567574,126.983064,남대문로1가,sec
11140115,37.563843,126.98199,남대문로2가,sec
11140116,37.561648,126.979389,남대문로3가,sec
11140117,37.560671,126.975325,남대문로4가,sec
11140118,37.5563,126.9748,남대문로5가,sec
11140128,37.559159,126.984669,남산동1가,sec
11140129,37.558333,126.9858,남산동2가,sec
11140130,37.55998,126.987333,남산동3가,sec
11140112,37.5581,126.977437,남창동,sec
11140140,37.560504,126.99086,남학동,sec
11140102,37.568133,126.980913,다동,sec
11140173,37.555917,126.967263,만리동1가,sec
11140174,37.5544,126.964,만리동2가,sec
11140126,37.564432,126.984421,명동1가,sec
11140127,37.562667,126.985175,명동2가,sec
11140101,37.568041,126.978823,무교동,sec
11140164,37.564209,127.015173,무학동,sec
11140136,37.561308,127.000525,묵정동,sec
11140153,37.5687,127.0032,방산동,sec
11140119,37.558889,126.972912,봉래동1가,sec
11140120,37.5566,126.971,봉래동2가,sec
11140113,37.5623,126.9783,북창동,sec
11140157,37.5676,126.9957,산림동,sec
11140107,37.567907,126.984746,삼각동,sec
11140166,37.563275,126.973425,서소문동,sec
11140111,37.562294,126.977184,소공동,sec
11140110,37.567317,126.989225,수표동,sec
11140108,37.567395,126.984593,수하동,sec
11140168,37.562758,126.970438,순화동,sec
11140162,37.557025,127.01315,신당동,sec
11140147,37.5638,127.0041,쌍림동,sec
11140135,37.564062,126.997989,예관동,sec
11140142,37.5553,126.9898,예장동,sec
11140154,37.564825,127.000775,오장동,sec
11140104,37.565882,126.980523,을지로1가,sec
11140105,37.56585,126.985638,을지로2가,sec
11140155,37.566578,126.99235,을지로3가,sec
11140150,37.5663,126.9968,을지로4가,sec
11140151,37.56665,127.002563,을지로5가,sec
11140148,37.567717,127.006938,을지로6가,sec
11140149,37.566325,127.010437,을지로7가,sec
11140169,37.563646,126.968443,의주로1가,sec
11140172,37.560645,126.969464,의주로2가,sec
11140160,37.5646,126.9944,인현동1가,sec
11140134,37.564125,126.996238,인현동2가,sec
11140156,37.567708,126.992717,입정동,sec
11140109,37.567463,126.987007,장교동,sec
11140143,37.560758,127.007688,장충동1가,sec
11140144,37.5552,127.0011,장충동2가,sec
11140131,37.56423,126.987841,저동1가,sec
11140161,37.5642,126.989713,저동2가,sec
11140167,37.5664,126.972925,정동,sec
11140152,37.568255,126.998888,주교동,sec
11140141,37.560631,126.989346,주자동,sec
11140171,37.554803,126.964498,중림동,sec
11140159,37.56465,126.992325,초동,sec
11140124,37.560925,126.982288,충무로1가,sec
11140125,37.561461,126.986308,충무로2가,sec
11140158,37.562228,126.991911,충무로3가,sec
11140132,37.5622,126.9956,충무로4가,sec
11140133,37.562561,126.999541,충무로5가,sec
11140170,37.566841,126.968041,충정로1가,sec
11140103,37.567545,126.977336,태평로1가,sec
11140114,37.563215,126.976357,태평로2가,sec
11140137,37.5609,126.9924,필동1가,sec
11140138,37.5586,126.9944,필동2가,sec
11140139,37.557735,126.997326,필동3가,sec
11140165,37.567367,127.02125,황학동,sec
11140121,37.5572,126.9813,회현동1가,sec
11140122,37.558497,126.982711,회현동2가,sec
11140123,37.560039,126.984044,회현동3가,sec
11140163,37.567675,127.016463,흥인동,sec
11260105,37.600899,127.1073,망우동,sec
11260101,37.5818,127.0903,면목동,sec
11260104,37.612607,127.078325,묵동,sec
11260102,37.600282,127.090875,상봉동,sec
11260106,37.6103,127.0934,신내동,sec
11260103,37.6004,127.0792,중화동,sec
41820250,37.825363,127.516049,가평읍,sec
41820350,37.959318,127.496994,북면,sec
41820330,37.805025,127.35705,상면,sec
41820310,37.675935,127.494463,설악면,sec
41820345,37.81745,127.353112,조종면,sec
41820325,37.740493,127.424125,청평면,sec
41281124,37.6019,126.8431,강매동,sec
41281116,37.70336,126.903663,고양동,sec
41281118,37.688345,126.862454,관산동,sec
41281121,37.6378,126.8031,내곡동,sec
41281119,37.7219,126.8558,내유동,sec
41281117,37.6977,126.8858,대자동,sec
41281122,37.6349,126.8174,대장동,sec
41281131,37.587,126.8709,덕은동,sec
41281105,37.6253,126.8621,도내동,sec
41281112,37.6417,126.8959,동산동,sec
41281114,37.7217,126.9071,벽제동,sec
41281107,37.6457,126.972,북한동,sec
41281111,37.6507,126.8901,삼송동,sec
41281115,37.6937,126.9117,선유동,sec
41281106,37.6486,126.8514,성사동,sec
41281103,37.672,126.8775,신원동,sec
41281127,37.6205,126.7859,신평동,sec
41281110,37.6674,126.9138,오금동,sec
41281113,37.6261,126.8913,용두동,sec
41281102,37.6709,126.86,원당동,sec
41281104,37.6468,126.869,원흥동,sec
41281101,37.659423,126.829608,주교동,sec
41281109,37.6689,126.9457,지축동,sec
41281120,37.6236,126.816,토당동,sec
41281128,37.621,126.8409,행신동,sec
41281125,37.604,126.8291,행주내동,sec
41281126,37.6046,126.8153,행주외동,sec
41281132,37.6005,126.8925,향동동,sec
41281130,37.5911,126.8489,현천동,sec
41281129,37.600071,126.872631,화전동,sec
41281123,37.6371,126.835,화정동,sec
41281108,37.6518,126.9206,효자동,sec
41285105,37.659,126.7836,마두동,sec
41285112,37.7007,126.8263,문봉동,sec
41285106,37.6404,126.788,백석동,sec
41285109,37.7,126.8426,사리현동,sec
41285108,37.6511,126.8076,산황동,sec
41285111,37.7221,126.8058,설문동,sec
41285113,37.7019,126.7964,성석동,sec
41285101,37.67406,126.809963,식사동,sec
41285104,37.6506,126.7575,장항동,sec
41285103,37.672479,126.779888,정발산동,sec
41285102,37.694043,126.781312,중산동,sec
41285110,37.7167,126.8305,지영동,sec
41285107,37.6694,126.7955,풍동,sec
41287106,37.6919,126.7203,가좌동,sec
41287107,37.6822,126.6897,구산동,sec
41287104,37.68296,126.755163,대화동,sec
41287105,37.697152,126.745306,덕이동,sec
41287108,37.664949,126.7119,법곳동,sec
41287101,37.685037,126.769951,일산동,sec
41287102,37.6716,126.7626,주엽동,sec
41287103,37.694334,126.768363,탄현동,sec
41290103,37.419522,126.989162,갈현동,sec
41290105,37.448368,126.995398,과천동,sec
41290101,37.4426,126.9882,관문동,sec
41290104,37.4268,127.0262,막계동,sec
41290102,37.430218,127.002425,문원동,sec
41290109,37.424247,126.993799,별양동,sec
41290110,37.433462,126.998573,부림동,sec
41290108,37.421885,126.9913,원문동,sec
41290106,37.4519,127.025,주암동,sec
41290107,37.432594,126.992711,중앙동,sec
41210107,37.4165,126.8577,가학동,sec
41210101,37.4733,126.8532,광명동,sec
41210105,37.4411,126.852,노온사동,sec
41210104,37.4402,126.8828,소하동,sec
41210108,37.466356,126.835701,옥길동,sec
41210106,37.4206,126.8816,일직동,sec
41210102,37.4815,126.8677,철산동,sec
41210103,37.4576,126.8718,하안동,sec
41610101,37.410919,127.257311,경안동,sec
41610114,37.3742,127.2234,고산동,sec
41610259,37.348757,127.3441,곤지암읍,sec
41610350,37.494176,127.301742,남종면,sec
41610370,37.463287,127.244599,남한산성면,sec
41610116,37.351527,127.155835,능평동,sec
41610330,37.304549,127.331182,도척면,sec
41610119,37.356157,127.262164,매산동,sec
41610113,37.3817,127.1989,목동,sec
41610106,37.4327,127.2156,목현동,sec
41610117,37.3494,127.2065,문형동,sec
41610107,37.4151,127.1979,삼동,sec
41610103,37.41946,127.246337,송정동,sec
41610115,37.363136,127.170177,신현동,sec
41610102,37.402682,127.272325,쌍령동,sec
41610120,37.38331,127.260577,양벌동,sec
41610112,37.400024,127.251488,역동,sec
41610111,37.3964,127.2408,장지동,sec
41610108,37.406,127.2131,중대동,sec
41610109,37.4015,127.1894,직동,sec
41610253,37.385581,127.288671,초월읍,sec
41610118,37.3623,127.2238,추자동,sec
41610105,37.417919,127.240568,탄벌동,sec
41610110,37.3893,127.2197,태전동,sec
41610340,37.466713,127.30708,퇴촌면,sec
41610104,37.4407,127.2436,회덕동,sec
41310101,37.635015,127.116225,갈매동,sec
41310104,37.5922,127.1255,교문동,sec
41310102,37.6351,127.1391,사노동,sec
41310105,37.59309,127.160938,수택동,sec
41310106,37.569925,127.116463,아천동,sec
41310103,37.604607,127.134813,인창동,sec
41310107,37.5805,127.153,토평동,sec
41410105,37.365468,126.939493,금정동,sec
41410101,37.35,126.9426,당동,sec
41410102,37.3492,126.9551,당정동,sec
41410108,37.3288,126.9195,대야미동,sec
41410109,37.3128,126.9226,도마교동,sec
41410106,37.3276,126.894,둔대동,sec
41410103,37.328664,126.935917,부곡동,sec
41410104,37.359232,126.91915,산본동,sec
41410107,37.3438,126.8994,속달동,sec
41570105,37.6243,126.6937,감정동,sec
41570102,37.6419,126.7161,걸포동,sec
41570253,37.603235,126.770828,고촌읍,sec
41570109,37.643508,126.628438,구래동,sec
41570340,37.64924,126.582063,대곶면,sec
41570108,37.638653,126.642293,마산동,sec
41570101,37.6248,126.7129,북변동,sec
41570106,37.619624,126.716713,사우동,sec
41570256,37.657428,126.625403,양촌읍,sec
41570103,37.655549,126.6887,운양동,sec
41570350,37.717294,126.552496,월곶면,sec
41570104,37.6468,126.6724,장기동,sec
41570250,37.69179,126.597205,통진읍,sec
41570107,37.604784,126.723595,풍무동,sec
41570360,37.719901,126.63165,하성면,sec
41360103,37.632247,127.205765,금곡동,sec
41360112,37.608651,127.161307,다산동,sec
41360110,37.600636,127.154227,도농동,sec
41360111,37.65954,127.122289,별내동,sec
41360310,37.70256,127.124725,별내면,sec
41360106,37.5956,127.1978,삼패동,sec
41360340,37.703618,127.325988,수동면,sec
41360108,37.58824,127.171088,수석동,sec
41360262,37.698908,127.204546,오남읍,sec
41360250,37.587807,127.211163,와부읍,sec
41360105,37.609449,127.195775,이패동,sec
41360104,37.6205,127.1851,일패동,sec
41360360,37.5359,127.30345,조안면,sec
41360109,37.602605,127.16428,지금동,sec
41360259,37.656921,127.179474,진건읍,sec
41360253,37.726471,127.190046,진접읍,sec
41360265,37.649296,127.144615,퇴계원읍,sec
41360102,37.648365,127.236157,평내동,sec
41360101,37.654406,127.24883,호평동,sec
41360256,37.652424,127.308688,화도읍,sec
41250105,37.9277,127.0959,걸산동,sec
41250104,37.9026,127.0954,광암동,sec
41250107,37.9331,127.0586,동두천동,sec
41250106,37.917751,127.06155,보산동,sec
41250109,37.9484,127.0582,상봉암동,sec
41250112,37.905922,127.044593,상패동,sec
41250103,37.904,127.0622,생연동,sec
41250101,37.89066,127.05422,송내동,sec
41250108,37.9325,127.0317,안흥동,sec
41250102,37.8895,127.0644,지행동,sec
41250111,37.8873,127.1168,탑동동,sec
41250110,37.9642,127.0681,하봉암동,sec
41194107,37.463587,126.80825,계수동,sec
41194104,37.478119,126.806953,괴안동,sec
41194103,37.470504,126.809816,범박동,sec
41194101,37.4735,126.7952,소사본동,sec
41194105,37.480093,126.765113,송내동,sec
41194102,37.480752,126.780031,심곡본동,sec
41194106,37.46801,126.82423,옥길동,sec
41196105,37.532167,126.81715,고강동,sec
41196108,37.5212,126.7826,내동,sec
41196106,37.5442,126.7765,대장동,sec
41196107,37.5246,126.768,삼정동,sec
41196102,37.5138,126.7985,여월동,sec
41196101,37.52895,126.7908,오정동,sec
41196104,37.5264,126.8052,원종동,sec
41196103,37.5136,126.815,작동,sec
41192104,37.516317,126.786,도당동,sec
41192109,37.495243,126.760788,상동,sec
41192106,37.485893,126.794579,소사동,sec
41192102,37.491,126.7785,심곡동,sec
41192105,37.513597,126.771481,약대동,sec
41192107,37.49031,126.808088,역곡동,sec
41192101,37.4942,126.7924,원미동,sec
41192108,37.487809,126.768132,중동,sec
41192103,37.502615,126.785855,춘의동,sec
41135114,37.339565,127.120827,구미동,sec
41135112,37.370585,127.10046,궁내동,sec
41135111,37.351866,127.110673,금곡동,sec
41135116,37.3691,127.0654,대장동,sec
41135113,37.3538,127.0839,동원동,sec
41135110,37.3839,127.1067,백현동,sec
41135101,37.370104,127.131062,분당동,sec
41135109,37.40145,127.111544,삼평동,sec
41135105,37.381382,127.1348,서현동,sec
41135117,37.378,127.0407,석운동,sec
41135102,37.375404,127.118063,수내동,sec
41135107,37.4064,127.1423,야탑동,sec
41135115,37.39488,127.07802,운중동,sec
41135104,37.3856,127.1617,율동,sec
41135106,37.397133,127.127159,이매동,sec
41135103,37.3675,127.1127,정자동,sec
41135108,37.390448,127.089099,판교동,sec
41135118,37.3869,127.0801,하산운동,sec
41131112,37.425032,127.101551,고등동,sec
41131116,37.4113,127.0701,금토동,sec
41131104,37.449404,127.155358,단대동,sec
41131114,37.4323,127.1127,둔전동,sec
41131107,37.46561,127.127075,복정동,sec
41131117,37.412782,127.1123,사송동,sec
41131105,37.452354,127.150146,산성동,sec
41131113,37.4278,127.0647,상적동,sec
41131103,37.4373,127.1298,수진동,sec
41131115,37.421982,127.107963,시흥동,sec
41131109,37.454678,127.104412,신촌동,sec
41131101,37.4473,127.1493,신흥동,sec
41131111,37.447226,127.10305,심곡동,sec
41131106,37.454868,127.161025,양지동,sec
41131110,37.4522,127.1104,오야동,sec
41131108,37.4664,127.1495,창곡동,sec
41131102,37.44711,127.131188,태평동,sec
41133108,37.4239,127.1737,갈현동,sec
41133103,37.4478,127.1674,금광동,sec
41133107,37.4152,127.1535,도촌동,sec
41133105,37.442168,127.180963,상대원동,sec
41133101,37.433673,127.134285,성남동,sec
41133106,37.4216,127.1315,여수동,sec
41133104,37.4626,127.1765,은행동,sec
41133132,37.443972,127.157458,중앙동,sec
41133109,37.428299,127.146322,하대원동,sec
41113128,37.2449,126.9806,고색동,sec
41113136,37.238226,127.030087,곡반정동,sec
41113132,37.277063,126.97143,구운동,sec
41113137,37.250372,127.028591,권선동,sec
41113134,37.272,126.9439,금곡동,sec
41113141,37.2901,126.941,당수동,sec
41113139,37.2317,127.0128,대황교동,sec
41113131,37.27258,126.986054,서둔동,sec
41113126,37.254242,127.009425,세류동,sec
41113129,37.2431,126.9645,오목천동,sec
41113140,37.293233,126.959513,입북동,sec
41113138,37.237,127.0064,장지동,sec
41113133,37.2645,126.9757,탑동,sec
41113127,37.258033,126.994163,평동,sec
41113130,37.2413,126.9959,평리동,sec
41113135,37.2589,126.9511,호매실동,sec
41117107,37.2397,127.0524,망포동,sec
41117101,37.2637,127.0505,매탄동,sec
41117106,37.246479,127.045963,신동,sec
41117105,37.2566,127.0738,영통동,sec
41117102,37.273673,127.057235,원천동,sec
41117103,37.30117,127.048381,이의동,sec
41117104,37.284142,127.069163,하동,sec
41111138,37.3349,127.0183,상광교동,sec
41111135,37.30051,127.007051,송죽동,sec
41111137,37.290545,127.021588,연무동,sec
41111134,37.293211,127.014113,영화동,sec
41111132,37.297618,126.971492,율전동,sec
41111131,37.3182,126.9787,이목동,sec
41111130,37.2999,126.9912,정자동,sec
41111136,37.304683,127.014513,조원동,sec
41111133,37.295833,126.978263,천천동,sec
41111129,37.308425,126.99479,파장동,sec
41111139,37.3169,127.0255,하광교동,sec
41115137,37.273414,127.001078,고등동,sec
41115132,37.2718,127.0135,교동,sec
41115126,37.2737,127.018,구천동,sec
41115127,37.28,127.0191,남수동,sec
41115123,37.2797,127.0128,남창동,sec
41115133,37.268581,127.014201,매교동,sec
41115134,37.266908,127.000963,매산로1가,sec
41115135,37.267617,127.005088,매산로2가,sec
41115136,37.2711,127.0098,매산로3가,sec
41115128,37.285617,127.019925,매향동,sec
41115129,37.2854,127.0167,북수동,sec
41115130,37.2834,127.0126,신풍동,sec
41115124,37.276695,127.018634,영동,sec
41115140,37.2841,127.0353,우만동,sec
41115141,37.270381,127.021301,인계동,sec
41115131,37.2868,127.0131,장안동,sec
41115125,37.273387,127.016671,중동,sec
41115139,37.28198,127.028475,지동,sec
41115120,37.280408,127.016212,팔달로1가,sec
41115121,37.2787,127.017113,팔달로2가,sec
41115122,37.276133,127.015213,팔달로3가,sec
41115138,37.2825,126.9973,화서동,sec
41390127,37.3549,126.7741,거모동,sec
41390113,37.4514,126.8117,계수동,sec
41390112,37.436875,126.832852,과림동,sec
41390121,37.3798,126.8137,광석동,sec
41390128,37.340001,126.784947,군자동,sec
41390110,37.4009,126.838,금이동,sec
41390125,37.395307,126.855838,논곡동,sec
41390118,37.3664,126.8148,능곡동,sec
41390101,37.443024,126.788568,대야동,sec
41390109,37.4064,126.818,도창동,sec
41390108,37.417661,126.815529,매화동,sec
41390126,37.384598,126.857338,목감동,sec
41390134,37.4152,126.838,무지내동,sec
41390122,37.3838,126.8353,물왕동,sec
41390105,37.4189,126.7902,미산동,sec
41390103,37.416074,126.765975,방산동,sec
41390135,37.367672,126.722265,배곧동,sec
41390123,37.3751,126.8384,산현동,sec
41390102,37.438399,126.784981,신천동,sec
41390107,37.4295,126.8154,안현동,sec
41390131,37.3832,126.7574,월곶동,sec
41390106,37.43645,126.79793,은행동,sec
41390130,37.3826,126.782,장곡동,sec
41390129,37.3798,126.7988,장현동,sec
41390132,37.3525,126.7279,정왕동,sec
41390124,37.3741,126.8653,조남동,sec
41390133,37.3494,126.7622,죽율동,sec
41390104,37.4058,126.7764,포동,sec
41390120,37.395157,126.813525,하상동,sec
41390119,37.3972,126.7994,하중동,sec
41390117,37.361364,126.818029,화정동,sec
41273101,37.3196,126.8314,고잔동,sec
41273112,37.2028,126.5391,대부남동,sec
41273110,37.2514,126.6008,대부동동,sec
41273111,37.29,126.5799,대부북동,sec
41273106,37.3099,126.7739,목내동,sec
41273113,37.21099,126.63876,선감동,sec
41273109,37.342349,126.804487,선부동,sec
41273104,37.3156,126.7472,성곡동,sec
41273103,37.3311,126.7679,신길동,sec
41273102,37.34151,126.82553,와동,sec
41273108,37.3279,126.7954,원곡동,sec
41273105,37.309,126.7884,원시동,sec
41273107,37.324678,126.808557,초지동,sec
41273114,37.109826,126.387597,풍도동,sec
41273115,37.3556,126.8265,화정동,sec
41271111,37.3062,126.9081,건건동,sec
41271104,37.2863,126.8663,본오동,sec
41271107,37.331945,126.861089,부곡동,sec
41271103,37.2918,126.8401,사동,sec
41271112,37.293117,126.9214,사사동,sec
41271108,37.320663,126.849428,성포동,sec
41271113,37.3666,126.8822,수암동,sec
41271106,37.3516,126.845,양상동,sec
41271109,37.332461,126.846996,월피동,sec
41271102,37.305508,126.860538,이동,sec
41271101,37.315397,126.871701,일동,sec
41271114,37.3537,126.8801,장상동,sec
41271115,37.3537,126.8612,장하동,sec
41271105,37.290653,126.887523,팔곡이동,sec
41271110,37.307542,126.888673,팔곡일동,sec
41550126,37.0155,127.2883,가사동,sec
41550127,37.0062,127.2873,가현동,sec
41550121,36.9892,127.2662,계동,sec
41550420,37.082474,127.26357,고삼면,sec
41550250,36.998709,127.171694,공도읍,sec
41550105,37.011367,127.272413,구포동,sec
41550320,36.997137,127.317567,금광면,sec
41550114,37.0129,127.2691,금산동,sec
41550120,37.031,127.2698,금석동,sec
41550109,37.004563,127.27462,낙원동,sec
41550125,37.0204,127.2718,당왕동,sec
41550350,37.012433,127.237775,대덕면,sec
41550116,37.008092,127.270088,대천동,sec
41550124,36.9971,127.2601,도기동,sec
41550106,37.006994,127.271835,동본동,sec
41550107,37.0145,127.2763,명륜동,sec
41550340,36.975363,127.215278,미양면,sec
41550132,36.99,127.2819,발화동,sec
41550310,37.022991,127.290831,보개면,sec
41550104,37.009342,127.276175,봉남동,sec
41550101,37.007083,127.279563,봉산동,sec
41550123,37.0384,127.2648,사곡동,sec
41550410,37.073019,127.374797,삼죽면,sec
41550330,36.943093,127.259274,서운면,sec
41550117,37.0064,127.2698,서인동,sec
41550118,37.0102,127.2594,석정동,sec
41550111,37.002675,127.272115,성남동,sec
41550102,37.010395,127.275108,숭인동,sec
41550128,37.0165,127.2461,신건지동,sec
41550130,37.021,127.2466,신모산동,sec
41550129,37.019517,127.256525,신소현동,sec
41550112,37.002771,127.268988,신흥동,sec
41550119,37.0047,127.2609,아양동,sec
41550360,37.059858,127.194487,양성면,sec
41550115,37.0104,127.270788,연지동,sec
41550103,37.0065,127.2737,영동,sec
41550122,37.007,127.2498,옥산동,sec
41550108,37.003036,127.275757,옥천동,sec
41550380,37.039725,127.1296,원곡면,sec
41550113,37.004442,127.268375,인지동,sec
41550390,37.090619,127.476949,일죽면,sec
41550400,37.078667,127.422563,죽산면,sec
41550133,36.977,127.2818,중리동,sec
41550110,37.004551,127.271937,창전동,sec
41550131,36.9978,127.2825,현수동,sec
41173102,37.4099,126.9644,관양동,sec
41173101,37.39934,126.941617,비산동,sec
41173103,37.389391,126.973677,평촌동,sec
41173104,37.37699,126.956513,호계동,sec
41171103,37.3969,126.8911,박달동,sec
41171102,37.426193,126.922188,석수동,sec
41171101,37.390226,126.924304,안양동,sec
41630115,37.8254,127.0688,고암동,sec
41630109,37.8055,127.076,고읍동,sec
41630106,37.7834,127.0729,광사동,sec
41630330,37.824453,126.983926,광적면,sec
41630320,37.898107,126.976963,남면,sec
41630103,37.7752,127.0374,남방동,sec
41630116,37.818783,127.044113,덕계동,sec
41630110,37.8451,127.0668,덕정동,sec
41630104,37.7755,127.055088,마전동,sec
41630107,37.7872,127.0955,만송동,sec
41630250,37.794966,126.985727,백석읍,sec
41630111,37.8596,127.0777,봉양동,sec
41630105,37.8029,127.038,산북동,sec
41630108,37.8022,127.1015,삼숭동,sec
41630102,37.7744,127.0122,어둔동,sec
41630114,37.8217,127.085838,옥정동,sec
41630101,37.7898,127.0266,유양동,sec
41630113,37.8268,127.1085,율정동,sec
41630310,37.874999,127.024525,은현면,sec
41630340,37.71786,126.941025,장흥면,sec
41630112,37.85,127.1029,회암동,sec
41630117,37.8398,127.0506,회정동,sec
41830310,37.477215,127.4855,강상면,sec
41830320,37.494868,127.410813,강하면,sec
41830410,37.425973,127.536796,개군면,sec
41830360,37.538518,127.672892,단월면,sec
41830350,37.606574,127.348688,서종면,sec
41830380,37.419101,127.754788,양동면,sec
41830330,37.543958,127.325975,양서면,sec
41830250,37.48661,127.493962,양평읍,sec
41830340,37.5181,127.456037,옥천면,sec
41830400,37.486766,127.595689,용문면,sec
41830395,37.474535,127.63925,지평면,sec
41830370,37.556308,127.710713,청운면,sec
41670250,37.201775,127.545114,가남읍,sec
41670110,37.269025,127.617338,가업동,sec
41670370,37.272917,127.711488,강천면,sec
41670108,37.280258,127.630525,교동,sec
41670330,37.392635,127.533285,금사면,sec
41670116,37.263733,127.6564,능현동,sec
41670105,37.270417,127.67785,단현동,sec
41670350,37.375104,127.586555,대신면,sec
41670119,37.282983,127.656425,매룡동,sec
41670117,37.249285,127.66505,멱곡동,sec
41670360,37.3294,127.6789,북내면,sec
41670380,37.40174,127.442994,산북면,sec
41670114,37.23466,127.660888,삼교동,sec
41670112,37.244243,127.627713,상거동,sec
41670101,37.2921,127.64695,상동,sec
41670345,37.300167,127.573525,세종대왕면,sec
41670106,37.274025,127.671588,신진동,sec
41670111,37.257006,127.611402,연라동,sec
41670118,37.288158,127.665438,연양동,sec
41670123,37.334799,127.647938,오금동,sec
41670121,37.30981,127.644467,오학동,sec
41670104,37.2537,127.679,우만동,sec
41670109,37.2849,127.6084,월송동,sec
41670310,37.206085,127.662538,점동면,sec
41670115,37.256117,127.646263,점봉동,sec
41670103,37.294283,127.632525,창동,sec
41670120,37.3052,127.662025,천송동,sec
41670113,37.23411,127.630325,하거동,sec
41670107,37.302554,127.61963,하동,sec
41670122,37.31555,127.633113,현암동,sec
41670102,37.290125,127.6367,홍문동,sec
41670320,37.333142,127.541775,흥천면,sec
41800310,38.08498,127.018965,군남면,sec
41800340,38.047052,126.992894,미산면,sec
41800330,38.030175,126.917388,백학면,sec
41800360,38.182856,127.107029,신서면,sec
41800250,38.103921,127.075784,연천읍,sec
41800350,38.058526,127.012892,왕징면,sec
41800380,37.981684,126.884406,장남면,sec
41800253,38.027797,127.0639,전곡읍,sec
41800370,38.17394,127.008689,중면,sec
41800320,37.981835,127.067625,청산면,sec
41370121,37.146532,127.054913,가수동,sec
41370106,37.162615,127.034725,가장동,sec
41370124,37.1309,127.0726,갈곶동,sec
41370122,37.133,127.0839,고현동,sec
41370104,37.161,127.0558,궐동,sec
41370107,37.1739,127.0455,금암동,sec
41370110,37.1779,127.0611,내삼미동,sec
41370120,37.1387,127.0565,누읍동,sec
41370118,37.1314,127.0457,두곡동,sec
41370117,37.1413,127.038,벌음동,sec
41370102,37.153399,127.087588,부산동,sec
41370116,37.150265,127.038088,서동,sec
41370115,37.175001,127.008675,서랑동,sec
41370113,37.1896,127.0403,세교동,sec
41370108,37.1683,127.0646,수청동,sec
41370112,37.1886,127.0164,양산동,sec
41370101,37.148157,127.0669,오산동,sec
41370111,37.1916,127.0565,외삼미동,sec
41370103,37.140449,127.08405,원동,sec
41370109,37.16159,127.074025,은계동,sec
41370114,37.1773,127.0257,지곶동,sec
41370105,37.1523,127.0563,청학동,sec
41370123,37.1294,127.0851,청호동,sec
41370119,37.1355,127.0481,탑동,sec
41463108,37.225618,127.1135,고매동,sec
41463107,37.237843,127.112675,공세동,sec
41463102,37.272874,127.127128,구갈동,sec
41463109,37.2267,127.0831,농서동,sec
41463115,37.28547,127.162012,동백동,sec
41463113,37.303883,127.12345,마북동,sec
41463105,37.256167,127.112725,보라동,sec
41463118,37.319384,127.114553,보정동,sec
41463103,37.261725,127.105305,상갈동,sec
41463117,37.27454,127.14106,상하동,sec
41463110,37.2394,127.0738,서천동,sec
41463101,37.285593,127.109074,신갈동,sec
41463112,37.2922,127.1266,언남동,sec
41463111,37.2605,127.0829,영덕동,sec
41463116,37.2704,127.1577,중동,sec
41463106,37.2396,127.1395,지곡동,sec
41463114,37.2954,127.1514,청덕동,sec
41463104,37.2506,127.0929,하갈동,sec
41465104,37.3582,127.0436,고기동,sec
41465103,37.341815,127.098854,동천동,sec
41465107,37.30345,127.07615,상현동,sec
41465106,37.313393,127.080731,성복동,sec
41465105,37.325092,127.073525,신봉동,sec
41465102,37.3293,127.1226,죽전동,sec
41465101,37.3236,127.0939,풍덕천동,sec
41461106,37.250417,127.225038,고림동,sec
41461101,37.236618,127.2027,김량장동,sec
41461104,37.2219,127.1999,남동,sec
41461259,37.115765,127.150387,남사읍,sec
41461107,37.229043,127.2298,마평동,sec
41461253,37.329227,127.242315,모현읍,sec
41461350,37.163452,127.375344,백암면,sec
41461103,37.240251,127.165525,삼가동,sec
41461360,37.235507,127.279802,양지면,sec
41461102,37.2401,127.1904,역북동,sec
41461108,37.2123,127.2394,운학동,sec
41461340,37.166684,127.313238,원삼면,sec
41461105,37.256,127.2057,유방동,sec
41461256,37.141084,127.196162,이동읍,sec
41461250,37.277834,127.230618,포곡읍,sec
41461110,37.1833,127.2781,해곡동,sec
41461109,37.1932,127.2497,호동,sec
41430101,37.347812,126.975915,고천동,sec
41430107,37.378299,126.985362,내손동,sec
41430103,37.322625,126.956875,삼동,sec
41430105,37.353503,126.971653,오전동,sec
41430104,37.3404,126.9938,왕곡동,sec
41430110,37.3104,126.9578,월암동,sec
41430102,37.3363,126.9593,이동,sec
41430108,37.388998,126.9976,청계동,sec
41430111,37.3117,126.9391,초평동,sec
41430109,37.3946,126.9895,포일동,sec
41430106,37.3731,127.0136,학의동,sec
41150110,37.7411,127.0173,가능동,sec
41150112,37.7293,127.0977,고산동,sec
41150109,37.7572,127.0664,금오동,sec
41150107,37.7572,127.1093,낙양동,sec
41150111,37.760047,127.032273,녹양동,sec
41150106,37.745201,127.099838,민락동,sec
41150113,37.7182,127.109,산곡동,sec
41150104,37.737926,127.0637,신곡동,sec
41150105,37.7315,127.0807,용현동,sec
41150101,37.739268,127.041963,의정부동,sec
41150108,37.7664,127.0943,자일동,sec
41150103,37.72627,127.0547,장암동,sec
41150102,37.725693,127.043865,호원동,sec
41500108,37.28655,127.466288,갈산동,sec
41500114,37.238751,127.459988,고담동,sec
41500102,37.282645,127.440535,관고동,sec
41500112,37.224801,127.453513,단월동,sec
41500350,37.229795,127.492469,대월면,sec
41500113,37.2084,127.4596,대포동,sec
41500340,37.24889,127.357869,마장면,sec
41500360,37.171478,127.482284,모가면,sec
41500320,37.339057,127.490713,백사면,sec
41500253,37.283663,127.486718,부발읍,sec
41500111,37.2944,127.419375,사음동,sec
41500370,37.132449,127.522038,설성면,sec
41500110,37.2963,127.4399,송정동,sec
41500310,37.306291,127.404025,신둔면,sec
41500107,37.2755,127.4604,안흥동,sec
41500380,37.094311,127.546417,율면,sec
41500105,37.259,127.4438,율현동,sec
41500115,37.2539,127.4571,장록동,sec
41500250,37.114886,127.616797,장호원읍,sec
41500103,37.278054,127.441722,중리동,sec
41500104,37.2604,127.4279,증일동,sec
41500109,37.290253,127.452508,증포동,sec
41500106,37.2682,127.453175,진리동,sec
41500101,37.282904,127.44106,창전동,sec
41500330,37.223137,127.424925,호법면,sec
41480105,37.7825,126.7434,검산동,sec
41480350,37.776308,126.85159,광탄면,sec
41480107,37.7501,126.7489,교하동,sec
41480380,37.938976,126.720996,군내면,sec
41480123,37.7522,126.7875,금릉동,sec
41480101,37.760475,126.769325,금촌동,sec
41480109,37.735751,126.727788,다율동,sec
41480114,37.742969,126.745019,당하동,sec
41480113,37.7137,126.7256,동패동,sec
41480106,37.7785,126.7286,맥금동,sec
41480117,37.72447,126.734569,목동동,sec
41480115,37.720563,126.69307,문발동,sec
41480250,37.852847,126.783632,문산읍,sec
41480256,37.848915,126.88265,법원읍,sec
41480112,37.699644,126.698634,산남동,sec
41480111,37.729018,126.7812,상지석동,sec
41480119,37.712013,126.697308,서패동,sec
41480116,37.75545,126.701056,송촌동,sec
41480120,37.735611,126.695406,신촌동,sec
41480102,37.7667,126.7847,아동동,sec
41480108,37.715553,126.761118,야당동,sec
41480104,37.7763,126.7642,야동동,sec
41480121,37.7458,126.7114,연다산동,sec
41480110,37.748446,126.725664,오도동,sec
41480122,37.7365,126.758773,와동동,sec
41480310,37.796037,126.790333,월롱면,sec
41480390,37.872705,126.707866,장단면,sec
41480370,37.95413,126.917879,적성면,sec
41480262,37.744936,126.805108,조리읍,sec
41480400,37.942244,126.797253,진동면,sec
41480410,37.95585,126.710651,진서면,sec
41480320,37.802492,126.7163,탄현면,sec
41480253,37.832824,126.81653,파주읍,sec
41480360,37.922008,126.838138,파평면,sec
41480118,37.758867,126.7471,하지석동,sec
41220107,37.044,127.0847,가재동,sec
41220128,37.04053,127.050468,고덕동,sec
41220330,37.0423,127.017745,고덕면,sec
41220115,36.9813,127.0884,군문동,sec
41220106,37.051058,127.110263,도일동,sec
41220111,37.087,127.0695,독곡동,sec
41220119,37.0152,127.0965,동삭동,sec
41220103,37.0334,127.0777,모곡동,sec
41220118,37.0026,127.1022,비전동,sec
41220101,37.066214,127.055765,서정동,sec
41220320,37.108232,127.035325,서탄면,sec
41220120,36.999915,127.082427,세교동,sec
41220123,36.985101,127.12735,소사동,sec
41220122,37.001575,127.065012,신대동,sec
41220112,37.0837,127.051,신장동,sec
41220253,36.98581,126.931688,안중읍,sec
41220340,37.007742,126.980313,오성면,sec
41220124,37.0003,127.1421,용이동,sec
41220125,37.0224,127.14,월곡동,sec
41220116,36.9755,127.1115,유천동,sec
41220109,37.0594,127.0689,이충동,sec
41220102,37.0404,127.0631,장당동,sec
41220108,37.058742,127.084813,장안동,sec
41220127,37.0075,127.125,죽백동,sec
41220110,37.077379,127.057577,지산동,sec
41220121,37.018,127.0669,지제동,sec
41220310,37.099994,127.090536,진위면,sec
41220126,37.0253,127.1227,청룡동,sec
41220259,37.0399,126.934088,청북읍,sec
41220104,37.0328,127.0914,칠괴동,sec
41220105,37.0259,127.1077,칠원동,sec
41220114,37.000815,127.087202,통복동,sec
41220250,36.964887,127.062143,팽성읍,sec
41220113,36.988562,127.084613,평택동,sec
41220256,36.982943,126.88515,포승읍,sec
41220117,36.985,127.1036,합정동,sec
41220370,36.967276,126.9215,현덕면,sec
41650330,37.84854,127.1861,가산면,sec
41650400,38.157699,127.25145,관인면,sec
41650310,37.888993,127.217426,군내면,sec
41650320,37.786225,127.22855,내촌면,sec
41650106,37.85,127.1275,동교동,sec
41650104,37.854253,127.159133,선단동,sec
41650105,37.8585,127.1432,설운동,sec
41650250,37.823381,127.138649,소흘읍,sec
41650340,37.933972,127.226599,신북면,sec
41650101,37.8996,127.1832,신읍동,sec
41650102,37.8848,127.1819,어룡동,sec
41650390,38.089049,127.2755,영북면,sec
41650360,38.00557,127.245158,영중면,sec
41650380,38.030686,127.36737,이동면,sec
41650370,37.961153,127.317052,일동면,sec
41650103,37.8778,127.1671,자작동,sec
41650350,37.991588,127.189339,창수면,sec
41650410,37.901126,127.288144,화현면,sec
41450113,37.516208,127.161688,감북동,sec
41450115,37.4987,127.168,감이동,sec
41450114,37.5102,127.146688,감일동,sec
41450124,37.5187,127.1734,광암동,sec
41450117,37.52085,127.205063,교산동,sec
41450107,37.5576,127.226338,당정동,sec
41450108,37.5451,127.2029,덕풍동,sec
41450109,37.5695,127.1882,망월동,sec
41450111,37.566,127.2105,미사동,sec
41450104,37.5249,127.2646,배알미동,sec
41450120,37.4952,127.1978,상사창동,sec
41450105,37.4912,127.2333,상산곡동,sec
41450112,37.583,127.1887,선동,sec
41450106,37.5447,127.2159,신장동,sec
41450103,37.5353,127.2319,창우동,sec
41450101,37.519238,127.224049,천현동,sec
41450123,37.536626,127.170829,초이동,sec
41450122,37.537667,127.183725,초일동,sec
41450118,37.522175,127.19415,춘궁동,sec
41450110,37.549016,127.185089,풍산동,sec
41450119,37.509583,127.2062,하사창동,sec
41450102,37.5097,127.2325,하산곡동,sec
41450116,37.4794,127.1619,학암동,sec
41450121,37.5003,127.1831,항동,sec
41590139,37.176391,127.078503,금곡동,sec
41590119,37.221726,127.046038,기산동,sec
41590124,37.2236,126.9817,기안동,sec
41590262,37.211776,126.823763,남양읍,sec
41590118,37.209,127.0597,능동,sec
41590330,37.205493,126.769588,마도면,sec
41590310,37.252298,126.909125,매송면,sec
41590134,37.186527,127.122701,목동,sec
41590127,37.194893,127.073413,반송동,sec
41590120,37.23457,127.061548,반월동,sec
41590121,37.232443,127.037837,반정동,sec
41590138,37.173474,127.089784,방교동,sec
41590123,37.2226,126.9966,배양동,sec
41590117,37.2079,127.0432,병점동,sec
41590253,37.219743,126.949488,봉담읍,sec
41590320,37.235318,126.873863,비봉면,sec
41590135,37.172311,127.114054,산척동,sec
41590140,37.281158,126.818615,새솔동,sec
41590350,37.166557,126.708738,서신면,sec
41590128,37.2095,127.0766,석우동,sec
41590137,37.171333,127.101848,송동,sec
41590125,37.212,127.0122,송산동,sec
41590340,37.217818,126.739138,송산면,sec
41590133,37.18271,127.141557,신동,sec
41590126,37.201501,127.004175,안녕동,sec
41590400,37.0813,126.944438,양감면,sec
41590131,37.210355,127.107386,영천동,sec
41590129,37.192398,127.097583,오산동,sec
41590256,37.089707,126.81545,우정읍,sec
41590370,37.079633,126.831375,장안면,sec
41590136,37.153958,127.113775,장지동,sec
41590410,37.168443,126.9829,정남면,sec
41590132,37.205309,127.138723,중동,sec
41590116,37.212964,127.039088,진안동,sec
41590130,37.194666,127.11352,청계동,sec
41590360,37.161149,126.903238,팔탄면,sec
41590259,37.108613,126.938865,향남읍,sec
41590122,37.2207,127.0144,황계동,sec
28710250,37.748268,126.483863,강화읍,sec
28710400,37.784433,126.282725,교동면,sec
28710330,37.640782,126.49125,길상면,sec
28710360,37.719518,126.389888,내가면,sec
28710320,37.686518,126.47995,불은면,sec
28710410,37.703468,126.320988,삼산면,sec
28710420,37.650336,126.239342,서도면,sec
28710310,37.71301,126.4847,선원면,sec
28710390,37.764692,126.46345,송해면,sec
28710350,37.662815,126.422088,양도면,sec
28710380,37.798433,126.40855,양사면,sec
28710370,37.774342,126.4115,하점면,sec
28710340,37.631982,126.420013,화도면,sec
28245119,37.5808,126.7223,갈현동,sec
28245102,37.5432,126.7207,계산동,sec
28245111,37.5668,126.7505,귤현동,sec
28245115,37.5795,126.7583,노오지동,sec
28245122,37.5632,126.7219,다남동,sec
28245110,37.5571,126.7592,동양동,sec
28245120,37.5733,126.7032,둑실동,sec
28245121,37.565,126.7094,목상동,sec
28245109,37.5548,126.7469,박촌동,sec
28245108,37.5548,126.732125,방축동,sec
28245107,37.5453,126.7473,병방동,sec
28245112,37.5748,126.7729,상야동,sec
28245104,37.530567,126.753113,서운동,sec
28245116,37.579,126.7471,선주지동,sec
28245118,37.5859,126.7269,오류동,sec
28245106,37.5409,126.7448,용종동,sec
28245117,37.586599,126.739738,이화동,sec
28245105,37.5468,126.7353,임학동,sec
28245103,37.530042,126.730163,작전동,sec
28245123,37.5759,126.736,장기동,sec
28245114,37.5831,126.7726,평동,sec
28245113,37.5807,126.7853,하야동,sec
28245101,37.5327,126.7004,효성동,sec
28200102,37.4667,126.7048,간석동,sec
28200111,37.3967,126.7001,고잔동,sec
28200101,37.4476,126.7111,구월동,sec
28200107,37.4241,126.7127,남촌동,sec
28200110,37.4101,126.7378,논현동,sec
28200109,37.4192,126.7259,도림동,sec
28200103,37.4529,126.7336,만수동,sec
28200105,37.434401,126.749675,서창동,sec
28200108,37.4373,126.7257,수산동,sec
28200106,37.439976,126.7633,운연동,sec
28200104,37.4586,126.7603,장수동,sec
28140106,37.4724,126.6401,금곡동,sec
28140101,37.48324,126.625521,만석동,sec
28140107,37.472918,126.646575,송림동,sec
28140103,37.476166,126.636995,송현동,sec
28140105,37.4706,126.6405,창영동,sec
28140102,37.485201,126.630825,화수동,sec
28140104,37.479,126.6309,화평동,sec
28177106,37.444168,126.696775,관교동,sec
28177104,37.4705,126.6634,도화동,sec
28177107,37.437693,126.685,문학동,sec
28177101,37.4636,126.6507,숭의동,sec
28177102,37.450851,126.647063,용현동,sec
28177105,37.4584,126.6854,주안동,sec
28177103,37.4404,126.6558,학익동,sec
28237106,37.5154,126.726,갈산동,sec
28237109,37.4746,126.7561,구산동,sec
28237107,37.4923,126.7378,부개동,sec
28237101,37.4886,126.7211,부평동,sec
28237103,37.499501,126.703225,산곡동,sec
28237105,37.518321,126.737771,삼산동,sec
28237102,37.4774,126.6994,십정동,sec
28237108,37.484476,126.746984,일신동,sec
28237104,37.513775,126.712075,청천동,sec
28260108,37.5264,126.6751,가정동,sec
28260112,37.48901,126.674438,가좌동,sec
28260103,37.5641,126.6745,검암동,sec
28260104,37.55645,126.648328,경서동,sec
28260105,37.550917,126.6964,공촌동,sec
28260118,37.6159,126.6418,금곡동,sec
28260114,37.587199,126.6906,당하동,sec
28260117,37.6248,126.6684,대곡동,sec
28260113,37.608,126.6674,마전동,sec
28260101,37.5792,126.67,백석동,sec
28260121,37.610455,126.690248,불로동,sec
28260110,37.5066,126.6666,석남동,sec
28260102,37.5699,126.6923,시천동,sec
28260109,37.5186,126.6672,신현동,sec
28260107,37.5413,126.6791,심곡동,sec
28260106,37.548991,126.678226,연희동,sec
28260119,37.565,126.5918,오류동,sec
28260120,37.5917,126.6496,왕길동,sec
28260115,37.5958,126.7068,원당동,sec
28260111,37.510362,126.632806,원창동,sec
28260122,37.536006,126.634552,청라동,sec
28185105,37.410034,126.672181,동춘동,sec
28185102,37.422508,126.701277,선학동,sec
28185106,37.388052,126.653769,송도동,sec
28185103,37.4192,126.6858,연수동,sec
28185101,37.4237,126.6478,옥련동,sec
28185104,37.424991,126.666118,청학동,sec
28720340,37.825358,124.712897,대청면,sec
28720350,37.226406,126.146799,덕적면,sec
28720330,37.952019,124.675088,백령면,sec
28720310,37.532442,126.427113,북도면,sec
28720380,37.664218,125.702394,연평면,sec
28720360,37.255892,126.4839,영흥면,sec
28720370,37.254546,126.307271,자월면,sec
28110134,37.47216,126.632357,경동,sec
28110109,37.473658,126.621553,관동1가,sec
28110110,37.47272,126.623498,관동2가,sec
28110111,37.472036,126.624753,관동3가,sec
28110150,37.45026,126.413012,남북동,sec
28110133,37.473468,126.628063,내동,sec
28110125,37.4697,126.6291,답동,sec
28110151,37.4183,126.4142,덕교동,sec
28110132,37.468085,126.637913,도원동,sec
28110152,37.384621,126.451107,무의동,sec
28110138,37.4714,126.6025,북성동1가,sec
28110139,37.4766,126.6182,북성동2가,sec
28110140,37.4762,126.6209,북성동3가,sec
28110122,37.4687,126.6256,사동,sec
28110141,37.474466,126.618172,선린동,sec
28110129,37.465949,126.637447,선화동,sec
28110142,37.48,126.6231,송월동1가,sec
28110143,37.479016,126.619602,송월동2가,sec
28110144,37.478203,126.621138,송월동3가,sec
28110119,37.474504,126.622509,송학동1가,sec
28110120,37.473835,126.624664,송학동2가,sec
28110121,37.473386,126.625823,송학동3가,sec
28110123,37.466985,126.627988,신생동,sec
28110124,37.47035,126.625109,신포동,sec
28110126,37.467476,126.631488,신흥동1가,sec
28110127,37.4661,126.6338,신흥동2가,sec
28110128,37.4478,126.6262,신흥동3가,sec
28110135,37.4732,126.6314,용동,sec
28110146,37.4863,126.53,운남동,sec
28110148,37.514117,126.517925,운북동,sec
28110147,37.49517,126.483942,운서동,sec
28110130,37.469685,126.637075,유동,sec
28110131,37.469359,126.635758,율목동,sec
28110149,37.4551,126.3787,을왕동,sec
28110136,37.475468,126.6315,인현동,sec
28110137,37.4772,126.6268,전동,sec
28110145,37.488589,126.55959,중산동,sec
28110101,37.473432,126.62043,중앙동1가,sec
28110102,37.472763,126.62171,중앙동2가,sec
28110103,37.471969,126.622855,중앙동3가,sec
28110104,37.471285,126.624082,중앙동4가,sec
28110112,37.4733,126.6167,항동1가,sec
28110113,37.472693,126.6179,항동2가,sec
28110114,37.472034,126.619349,항동3가,sec
28110115,37.471377,126.620489,항동4가,sec
28110116,37.470684,126.621697,항동5가,sec
28110117,37.470009,126.622868,항동6가,sec
28110118,37.4535,126.6026,항동7가,sec
28110105,37.472824,126.619916,해안동1가,sec
28110106,37.472159,126.621164,해안동2가,sec
28110107,37.471333,126.622271,해안동3가,sec
28110108,37.470649,126.623481,해안동4가,sec
26440103,35.214547,128.935338,강동동,sec
26440113,35.1277,128.8523,구랑동,sec
26440111,35.12658,128.858635,녹산동,sec
26440120,35.0684,128.8458,눌차동,sec
26440101,35.21454,128.980621,대저1동,sec
26440102,35.178577,128.956462,대저2동,sec
26440122,35.0073,128.8315,대항동,sec
26440118,35.0443,128.8355,동선동,sec
26440104,35.108082,128.92635,명지동,sec
26440115,35.152899,128.856313,미음동,sec
26440116,35.1558,128.8809,범방동,sec
26440108,35.165482,128.896312,봉림동,sec
26440112,35.132,128.8796,생곡동,sec
26440119,35.0849,128.8338,성북동,sec
26440109,35.1067,128.8492,송정동,sec
26440106,35.2125,128.9073,식만동,sec
26440117,35.0674,128.8751,신호동,sec
26440107,35.198385,128.88325,죽동동,sec
26440105,35.1996,128.8999,죽림동,sec
26440114,35.1445,128.8277,지사동,sec
26440121,35.029522,128.802612,천성동,sec
26440110,35.1033,128.8695,화전동,sec
26410107,35.2539,129.0851,구서동,sec
26410111,35.220368,129.111112,금사동,sec
26410113,35.250333,129.056138,금성동,sec
26410104,35.27165,129.092288,남산동,sec
26410102,35.275408,129.089925,노포동,sec
26410101,35.2877,129.1135,두구동,sec
26410109,35.2317,129.0962,부곡동,sec
26410110,35.2198,129.1031,서동,sec
26410105,35.2724,129.1139,선동,sec
26410106,35.2464,129.1174,오륜동,sec
26410108,35.2362,129.0747,장전동,sec
26410103,35.2831,129.0691,청룡동,sec
26410112,35.2391,129.128,회동동,sec
26710250,35.238707,129.215849,기장읍,sec
26710259,35.263938,129.232222,일광읍,sec
26710253,35.313864,129.244032,장안읍,sec
26710256,35.325545,129.180312,정관읍,sec
26710330,35.274925,129.149638,철마면,sec
26290111,35.114415,129.079275,감만동,sec
26290106,35.141,129.0912,대연동,sec
26290109,35.1392,129.0715,문현동,sec
26290108,35.117657,129.095063,용당동,sec
26290107,35.130582,129.111963,용호동,sec
26290110,35.1262,129.0762,우암동,sec
26170104,35.134915,129.0605,범일동,sec
26170102,35.1315,129.0366,수정동,sec
26170103,35.1286,129.0539,좌천동,sec
26170101,35.120207,129.037225,초량동,sec
26260104,35.197001,129.092312,낙민동,sec
26260107,35.2099,129.0839,명륜동,sec
26260101,35.207985,129.1027,명장동,sec
26260105,35.2071,129.0885,복천동,sec
26260109,35.1996,129.0614,사직동,sec
26260106,35.1989,129.0844,수안동,sec
26260102,35.194201,129.105763,안락동,sec
26260108,35.2134,129.0662,온천동,sec
26260103,35.2051,129.0931,칠산동,sec
26230110,35.1466,129.0312,가야동,sec
26230111,35.150924,129.02105,개금동,sec
26230109,35.168,129.0251,당감동,sec
26230105,35.16574,129.061263,범전동,sec
26230104,35.149607,129.0516,범천동,sec
26230108,35.1707,129.0395,부암동,sec
26230103,35.158015,129.05695,부전동,sec
26230101,35.1719,129.0717,양정동,sec
26230106,35.172776,129.05275,연지동,sec
26230102,35.158607,129.072463,전포동,sec
26230107,35.178718,129.047487,초읍동,sec
26320105,35.199635,129.005225,구포동,sec
26320101,35.250085,129.012768,금곡동,sec
26320104,35.2148,129.0134,덕천동,sec
26320103,35.2123,129.0375,만덕동,sec
26320102,35.224918,129.0101,화명동,sec
26530105,35.155615,128.98665,감전동,sec
26530104,35.163765,128.987175,괘법동,sec
26530103,35.1746,128.9887,덕포동,sec
26530102,35.185,129.0014,모라동,sec
26530101,35.17696,128.977725,삼락동,sec
26530108,35.128715,128.97215,엄궁동,sec
26530106,35.154365,129.004988,주례동,sec
26530107,35.144107,128.987325,학장동,sec
26380108,35.088282,129.003787,감천동,sec
26380101,35.105199,128.996987,괴정동,sec
26380107,35.081925,128.987775,구평동,sec
26380106,35.058636,128.976652,다대동,sec
26380102,35.102949,128.976663,당리동,sec
26380104,35.0906,128.9687,신평동,sec
26380105,35.075551,128.963758,장림동,sec
26380103,35.1111,128.9537,하단동,sec
26140123,35.087365,129.0219,남부민동,sec
26140101,35.11009,129.021975,동대신동1가,sec
26140102,35.1135,129.0234,동대신동2가,sec
26140103,35.1247,129.0224,동대신동3가,sec
26140109,35.103627,129.020676,부민동1가,sec
26140110,35.103682,129.019325,부민동2가,sec
26140111,35.1039,129.0161,부민동3가,sec
26140107,35.1067,129.0212,부용동1가,sec
26140108,35.1066,129.0173,부용동2가,sec
26140104,35.1074,129.0147,서대신동1가,sec
26140105,35.1094,129.0114,서대신동2가,sec
26140106,35.1255,129.0107,서대신동3가,sec
26140115,35.100409,129.019126,아미동1가,sec
26140116,35.100282,129.013025,아미동2가,sec
26140124,35.079988,129.021309,암남동,sec
26140119,35.096007,129.0203,초장동,sec
26140120,35.0956,129.0246,충무동1가,sec
26140121,35.095264,129.022325,충무동2가,sec
26140122,35.093945,129.022204,충무동3가,sec
26140112,35.0998,129.0233,토성동1가,sec
26140113,35.100313,129.021514,토성동2가,sec
26140114,35.100126,129.020308,토성동3가,sec
26140117,35.097297,129.023844,토성동4가,sec
26140118,35.097428,129.021694,토성동5가,sec
26500104,35.16,129.1083,광안동,sec
26500105,35.1441,129.1104,남천동,sec
26500101,35.1731,129.1036,망미동,sec
26500103,35.15729,129.1257,민락동,sec
26500102,35.170518,129.116025,수영동,sec
26470101,35.187801,129.063675,거제동,sec
26470102,35.176,129.0869,연산동,sec
26200105,35.0902,129.0393,남항동1가,sec
26200106,35.0883,129.0372,남항동2가,sec
26200107,35.0851,129.0375,남항동3가,sec
26200101,35.0932,129.0379,대교동1가,sec
26200102,35.091702,129.041005,대교동2가,sec
26200103,35.09144,129.034963,대평동1가,sec
26200104,35.092665,129.0331,대평동2가,sec
26200121,35.06361,129.074126,동삼동,sec
26200115,35.094299,129.039925,봉래동1가,sec
26200116,35.0945,129.0428,봉래동2가,sec
26200117,35.0938,129.0447,봉래동3가,sec
26200118,35.0925,129.0487,봉래동4가,sec
26200119,35.0933,129.0524,봉래동5가,sec
26200112,35.0905,129.0468,신선동1가,sec
26200113,35.0864,129.0476,신선동2가,sec
26200114,35.0819,129.0495,신선동3가,sec
26200108,35.0905,129.0437,영선동1가,sec
26200109,35.0884,129.0426,영선동2가,sec
26200110,35.08589,129.041163,영선동3가,sec
26200111,35.0791,129.047,영선동4가,sec
26200120,35.0913,129.0643,청학동,sec
26110133,35.098885,129.034413,광복동1가,sec
26110134,35.1,129.0324,광복동2가,sec
26110135,35.100586,129.031394,광복동3가,sec
26110136,35.097286,129.034803,남포동1가,sec
26110137,35.09812,129.032334,남포동2가,sec
26110138,35.098927,129.029196,남포동3가,sec
26110139,35.097615,129.032225,남포동4가,sec
26110140,35.0977,129.0292,남포동5가,sec
26110141,35.097232,129.027138,남포동6가,sec
26110102,35.107914,129.036125,대창동1가,sec
26110103,35.11066,129.037398,대창동2가,sec
26110116,35.1044,129.0329,대청동1가,sec
26110117,35.103251,129.030803,대청동2가,sec
26110118,35.10299,129.028893,대청동3가,sec
26110119,35.1061,129.0297,대청동4가,sec
26110111,35.09889,129.035618,동광동1가,sec
26110112,35.100127,129.034288,동광동2가,sec
26110113,35.101593,129.033938,동광동3가,sec
26110114,35.103353,129.034188,동광동4가,sec
26110115,35.1072,129.0339,동광동5가,sec
26110120,35.1066,129.0256,보수동1가,sec
26110121,35.105482,129.022725,보수동2가,sec
26110122,35.10449,129.022462,보수동3가,sec
26110123,35.100721,129.027078,부평동1가,sec
26110124,35.100546,129.025635,부평동2가,sec
26110125,35.101085,129.024501,부평동3가,sec
26110126,35.1019,129.023,부평동4가,sec
26110127,35.101315,129.030274,신창동1가,sec
26110128,35.101409,129.029561,신창동2가,sec
26110129,35.101415,129.028896,신창동3가,sec
26110130,35.101447,129.028237,신창동4가,sec
26110101,35.1124,129.0325,영주동,sec
26110104,35.100696,129.03564,중앙동1가,sec
26110105,35.102052,129.035553,중앙동2가,sec
26110106,35.103431,129.035524,중앙동3가,sec
26110107,35.1076,129.0389,중앙동4가,sec
26110108,35.102249,129.037138,중앙동5가,sec
26110109,35.099749,129.037113,중앙동6가,sec
26110110,35.0974,129.0365,중앙동7가,sec
26110131,35.099532,129.030322,창선동1가,sec
26110132,35.099589,129.028617,창선동2가,sec
26350101,35.2275,129.1563,반송동,sec
26350103,35.2046,129.1329,반여동,sec
26350102,35.2259,129.1331,석대동,sec
26350108,35.183673,129.203664,송정동,sec
26350105,35.1759,129.1472,우동,sec
26350104,35.184426,129.128263,재송동,sec
26350107,35.1848,129.175,좌동,sec
26350106,35.163907,129.187613,중동,sec
30230121,36.4275,127.4699,갈전동,sec
30230102,36.366499,127.411388,대화동,sec
30230115,36.44029,127.42681,덕암동,sec
30230112,36.448518,127.412275,목상동,sec
30230113,36.4469,127.3991,문평동,sec
30230125,36.4619,127.471,미호동,sec
30230108,36.3745,127.4349,법동,sec
30230122,36.4398,127.4772,부수동,sec
30230110,36.354874,127.44996,비래동,sec
30230124,36.443,127.4671,삼정동,sec
30230116,36.424168,127.422338,상서동,sec
30230111,36.448147,127.425697,석봉동,sec
30230107,36.365774,127.439888,송촌동,sec
30230105,36.3935,127.4156,신대동,sec
30230114,36.4361,127.4059,신일동,sec
30230126,36.451722,127.429121,신탄진동,sec
30230104,36.3913,127.4286,연축동,sec
30230101,36.353874,127.409876,오정동,sec
30230106,36.4076,127.4276,와동,sec
30230119,36.4348,127.4499,용호동,sec
30230103,36.3776,127.4223,읍내동,sec
30230120,36.4133,127.4618,이현동,sec
30230118,36.4028,127.4457,장동,sec
30230109,36.360615,127.426412,중리동,sec
30230117,36.4313,127.4344,평촌동,sec
30230123,36.4465,127.4909,황호동,sec
30110114,36.345465,127.450788,가양동,sec
30110105,36.3074,127.4582,가오동,sec
30110142,36.266,127.4735,구도동,sec
30110136,36.287,127.4849,낭월동,sec
30110133,36.3995,127.5112,내탑동,sec
30110110,36.328442,127.445625,대동,sec
30110137,36.2824,127.4569,대별동,sec
30110139,36.2952,127.4688,대성동,sec
30110125,36.3889,127.4901,마산동,sec
30110122,36.3454,127.4738,비룡동,sec
30110132,36.3854,127.5171,사성동,sec
30110143,36.2477,127.4747,삼괴동,sec
30110118,36.3391,127.4273,삼성동,sec
30110108,36.321817,127.4741,삼정동,sec
30110144,36.224401,127.458775,상소동,sec
30110116,36.344215,127.43235,성남동,sec
30110128,36.3244,127.4913,세천동,sec
30110113,36.334599,127.438788,소제동,sec
30110141,36.259826,127.447227,소호동,sec
30110129,36.3531,127.5021,신상동,sec
30110112,36.3295,127.4382,신안동,sec
30110131,36.3758,127.5105,신촌동,sec
30110130,36.3645,127.4998,신하동,sec
30110106,36.32345,127.443488,신흥동,sec
30110134,36.4143,127.5237,오동,sec
30110124,36.3724,127.4868,용계동,sec
30110109,36.328133,127.461513,용운동,sec
30110115,36.35804,127.431986,용전동,sec
30110101,36.327,127.4344,원동,sec
30110138,36.2832,127.4408,이사동,sec
30110102,36.323425,127.437938,인동,sec
30110111,36.335443,127.449085,자양동,sec
30110140,36.253,127.4453,장척동,sec
30110119,36.3323,127.433213,정동,sec
30110123,36.3583,127.4774,주산동,sec
30110135,36.4059,127.5366,주촌동,sec
30110120,36.3316,127.4297,중동,sec
30110127,36.4165,127.4852,직동,sec
30110104,36.3142,127.4458,천동,sec
30110121,36.3746,127.4685,추동,sec
30110107,36.3124,127.4685,판암동,sec
30110145,36.2134,127.4388,하소동,sec
30110117,36.347033,127.42335,홍도동,sec
30110103,36.317075,127.441788,효동,sec
30110126,36.3961,127.4659,효평동,sec
30170114,36.303508,127.349413,가수원동,sec
30170109,36.330125,127.3852,가장동,sec
30170111,36.348465,127.369538,갈마동,sec
30170116,36.296133,127.335438,관저동,sec
30170127,36.2829,127.3507,괴곡동,sec
30170108,36.337175,127.382042,괴정동,sec
30170110,36.332242,127.377325,내동,sec
30170103,36.3201,127.371663,도마동,sec
30170115,36.3229,127.3483,도안동,sec
30170112,36.3548,127.3848,둔산동,sec
30170128,36.36753,127.375041,만년동,sec
30170118,36.2418,127.3326,매노동,sec
30170102,36.325817,127.386738,변동,sec
30170101,36.306808,127.373638,복수동,sec
30170126,36.268667,127.323575,봉곡동,sec
30170119,36.2399,127.3511,산직동,sec
30170122,36.2182,127.3226,오동,sec
30170105,36.336858,127.394353,용문동,sec
30170125,36.2522,127.3216,용촌동,sec
30170123,36.2384,127.2869,우명동,sec
30170124,36.2549,127.2989,원정동,sec
30170113,36.3468,127.3562,월평동,sec
30170120,36.2098,127.3408,장안동,sec
30170104,36.304508,127.366725,정림동,sec
30170106,36.346682,127.39539,탄방동,sec
30170121,36.2383,127.3109,평촌동,sec
30170117,36.2663,127.347,흑석동,sec
30200126,36.3818,127.3689,가정동,sec
30200118,36.3661,127.2911,갑동,sec
30200106,36.334,127.2912,계산동,sec
30200146,36.4226,127.3892,관평동,sec
30200102,36.3066,127.3117,교촌동,sec
30200153,36.4415,127.3575,구룡동,sec
30200124,36.370724,127.3661,구성동,sec
30200112,36.356207,127.3216,구암동,sec
30200122,36.368549,127.343738,궁동,sec
30200148,36.466301,127.387375,금고동,sec
30200150,36.4895,127.3837,금탄동,sec
30200119,36.368379,127.318297,노은동,sec
30200149,36.4804,127.3935,대동,sec
30200103,36.315742,127.318538,대정동,sec
30200113,36.3455,127.3012,덕명동,sec
30200131,36.4251,127.3687,덕진동,sec
30200127,36.382099,127.382775,도룡동,sec
30200152,36.4596,127.3648,둔곡동,sec
30200140,36.3919,127.3965,문지동,sec
30200139,36.3943,127.2988,반석동,sec
30200110,36.279592,127.297038,방동,sec
30200129,36.4108,127.3632,방현동,sec
30200116,36.34144,127.319688,복용동,sec
30200111,36.353349,127.343825,봉명동,sec
30200145,36.4462,127.3826,봉산동,sec
30200115,36.34084,127.33445,상대동,sec
30200107,36.3093,127.2896,성북동,sec
30200108,36.30291,127.272988,세동,sec
30200147,36.429926,127.381663,송강동,sec
30200109,36.2889,127.2574,송정동,sec
30200136,36.4162,127.3165,수남동,sec
30200151,36.4766,127.3718,신동,sec
30200135,36.4084,127.3339,신봉동,sec
30200125,36.389219,127.347369,신성동,sec
30200137,36.4099,127.2921,안산동,sec
30200123,36.3705,127.3541,어은동,sec
30200138,36.4022,127.3112,외삼동,sec
30200104,36.3262,127.3241,용계동,sec
30200144,36.4205,127.3998,용산동,sec
30200101,36.2991,127.3177,원내동,sec
30200114,36.3388,127.3452,원신흥동,sec
30200142,36.3818,127.4005,원촌동,sec
30200134,36.4015,127.345,자운동,sec
30200117,36.3622,127.3314,장대동,sec
30200128,36.3951,127.3617,장동,sec
30200141,36.400028,127.400326,전민동,sec
30200121,36.3758,127.3345,죽동,sec
30200120,36.381799,127.305525,지족동,sec
30200133,36.4194,127.3439,추목동,sec
30200143,36.4165,127.4112,탑립동,sec
30200132,36.3905,127.3333,하기동,sec
30200105,36.336232,127.3138,학하동,sec
30200130,36.4047,127.3806,화암동,sec
30140121,36.2771,127.4254,구완동,sec
30140126,36.240735,127.4271,금동,sec
30140110,36.317658,127.424825,대사동,sec
30140105,36.320342,127.4259,대흥동,sec
30140123,36.2636,127.412463,목달동,sec
30140103,36.334367,127.412414,목동,sec
30140120,36.2797,127.4082,무수동,sec
30140106,36.316192,127.43805,문창동,sec
30140116,36.3092,127.4066,문화동,sec
30140111,36.314258,127.433825,부사동,sec
30140118,36.2937,127.3952,사정동,sec
30140117,36.305483,127.386138,산성동,sec
30140107,36.309725,127.4424,석교동,sec
30140102,36.3315,127.418888,선화동,sec
30140119,36.2815,127.3778,안영동,sec
30140125,36.2223,127.4156,어남동,sec
30140113,36.3255,127.403837,오류동,sec
30140109,36.2983,127.4518,옥계동,sec
30140112,36.3252,127.41035,용두동,sec
30140115,36.3174,127.3974,유천동,sec
30140101,36.329917,127.426712,은행동,sec
30140124,36.2499,127.4025,정생동,sec
30140104,36.338915,127.41265,중촌동,sec
30140122,36.2762,127.393,침산동,sec
30140114,36.324917,127.394875,태평동,sec
30140108,36.2991,127.4359,호동,sec
27200103,35.8362,128.5718,대명동,sec
27200102,35.8287,128.5983,봉덕동,sec
27200101,35.853715,128.599413,이천동,sec
27290106,35.842399,128.499712,갈산동,sec
27290113,35.85104,128.542138,감삼동,sec
27290123,35.7986,128.528775,대곡동,sec
27290119,35.8251,128.4943,대천동,sec
27290116,35.807509,128.53211,도원동,sec
27290102,35.8541,128.5617,두류동,sec
27290124,35.834474,128.541,본동,sec
27290114,35.84214,128.537875,본리동,sec
27290115,35.8149,128.5541,상인동,sec
27290101,35.8451,128.5543,성당동,sec
27290122,35.8265,128.5519,송현동,sec
27290107,35.858978,128.498836,신당동,sec
27290111,35.859457,128.523812,용산동,sec
27290120,35.8277,128.53,월성동,sec
27290121,35.8286,128.5101,월암동,sec
27290118,35.8155,128.5132,유천동,sec
27290108,35.859282,128.507663,이곡동,sec
27290110,35.843407,128.5299,장기동,sec
27290109,35.840849,128.512387,장동,sec
27290112,35.855815,128.5398,죽전동,sec
27290117,35.814767,128.524213,진천동,sec
27290104,35.8457,128.4743,파호동,sec
27290105,35.8347,128.4789,호림동,sec
27290125,35.8537,128.4823,호산동,sec
27710310,35.802708,128.622825,가창면,sec
27710380,35.658835,128.41355,구지면,sec
27710253,35.774233,128.420263,논공읍,sec
27710256,35.861843,128.453928,다사읍,sec
27710262,35.789594,128.463717,옥포읍,sec
27710259,35.677435,128.455412,유가읍,sec
27710330,35.900923,128.445503,하빈면,sec
27710265,35.697476,128.447688,현풍읍,sec
27710250,35.803825,128.500513,화원읍,sec
27140123,35.8841,128.717,각산동,sec
27140110,35.8958,128.6641,검사동,sec
27140126,35.8721,128.7381,괴전동,sec
27140127,35.8583,128.738,금강동,sec
27140131,35.8987,128.7532,내곡동,sec
27140140,35.966,128.657,내동,sec
27140132,35.9674,128.7357,능성동,sec
27140128,35.8686,128.7452,대림동,sec
27140144,35.9897,128.6111,덕곡동,sec
27140107,35.9258,128.6669,도동,sec
27140134,35.9878,128.714,도학동,sec
27140125,35.89,128.7419,동내동,sec
27140116,35.8665,128.7166,동호동,sec
27140112,35.908099,128.689375,둔산동,sec
27140122,35.9114,128.7283,매여동,sec
27140136,35.9676,128.6879,미곡동,sec
27140139,35.956901,128.668637,미대동,sec
27140111,35.880082,128.6652,방촌동,sec
27140135,35.9555,128.6954,백안동,sec
27140105,35.926735,128.6438,봉무동,sec
27140113,35.8912,128.6897,부동,sec
27140106,35.9056,128.6334,불로동,sec
27140129,35.8714,128.7531,사복동,sec
27140121,35.907799,128.711925,상매동,sec
27140115,35.8652,128.7106,서호동,sec
27140143,35.9951,128.6264,송정동,sec
27140130,35.8806,128.75,숙천동,sec
27140117,35.8657,128.7045,신기동,sec
27140138,35.9975,128.6677,신무동,sec
27140124,35.8865,128.7312,신서동,sec
27140101,35.884448,128.624005,신암동,sec
27140141,35.9849,128.6508,신용동,sec
27140102,35.8727,128.6236,신천동,sec
27140114,35.883,128.6863,신평동,sec
27140119,35.8747,128.6859,용계동,sec
27140137,35.9914,128.6899,용수동,sec
27140120,35.8804,128.7044,율암동,sec
27140118,35.8666,128.6917,율하동,sec
27140109,35.8986,128.6535,입석동,sec
27140142,35.9874,128.6344,중대동,sec
27140145,35.9523,128.6415,지묘동,sec
27140108,35.893715,128.638238,지저동,sec
27140133,35.96,128.7158,진인동,sec
27140104,35.9306,128.7081,평광동,sec
27140103,35.8802,128.6451,효목동,sec
27230113,35.913424,128.627225,검단동,sec
27230103,35.878684,128.584784,고성동1가,sec
27230104,35.880399,128.582763,고성동2가,sec
27230105,35.8826,128.5855,고성동3가,sec
27230125,35.944251,128.547275,관음동,sec
27230123,35.940546,128.56939,구암동,sec
27230122,35.9463,128.5846,국우동,sec
27230129,35.9044,128.5257,금호동,sec
27230117,35.9109,128.5604,노곡동,sec
27230107,35.8891,128.5797,노원동1가,sec
27230108,35.8911,128.5737,노원동2가,sec
27230109,35.8964,128.5674,노원동3가,sec
27230110,35.882999,128.607213,대현동,sec
27230121,35.9706,128.5911,도남동,sec
27230114,35.9242,128.6088,동변동,sec
27230124,35.943285,128.5554,동천동,sec
27230119,35.9662,128.5667,동호동,sec
27230127,35.9123,128.5377,매천동,sec
27230112,35.8983,128.6218,복현동,sec
27230130,35.9015,128.5131,사수동,sec
27230111,35.9014,128.6046,산격동,sec
27230115,35.9256,128.5922,서변동,sec
27230131,35.9606,128.6126,연경동,sec
27230118,35.94591,128.5507,읍내동,sec
27230116,35.9166,128.5759,조야동,sec
27230101,35.875665,128.605012,칠성동1가,sec
27230102,35.880515,128.596325,칠성동2가,sec
27230106,35.894,128.5852,침산동,sec
27230126,35.921,128.5464,태전동,sec
27230128,35.8987,128.541,팔달동,sec
27230120,35.9537,128.5667,학정동,sec
27170101,35.8618,128.5591,내당동,sec
27170102,35.8819,128.5641,비산동,sec
27170104,35.8767,128.5261,상리동,sec
27170107,35.881599,128.576825,원대동1가,sec
27170108,35.884249,128.580063,원대동2가,sec
27170109,35.8855,128.5756,원대동3가,sec
27170106,35.87589,128.539575,이현동,sec
27170105,35.8628,128.5391,중리동,sec
27170103,35.873,128.5571,평리동,sec
27260126,35.8518,128.6865,가천동,sec
27260125,35.8632,128.6701,고모동,sec
27260120,35.8311,128.6965,노변동,sec
27260127,35.8218,128.6861,대흥동,sec
27260111,35.829433,128.620588,두산동,sec
27260102,35.86,128.6489,만촌동,sec
27260115,35.8507,128.7074,매호동,sec
27260113,35.81,128.6546,범물동,sec
27260101,35.85554,128.622025,범어동,sec
27260117,35.8394,128.7193,사월동,sec
27260122,35.8282,128.6675,삼덕동,sec
27260109,35.832133,128.615412,상동,sec
27260116,35.8516,128.7205,성동,sec
27260103,35.855,128.611,수성동1가,sec
27260104,35.855,128.6154,수성동2가,sec
27260105,35.855,128.6191,수성동3가,sec
27260106,35.863615,128.615813,수성동4가,sec
27260114,35.84324,128.69265,시지동,sec
27260118,35.835324,128.711138,신매동,sec
27260123,35.8419,128.6766,연호동,sec
27260119,35.812333,128.70285,욱수동,sec
27260124,35.8434,128.6604,이천동,sec
27260108,35.847357,128.61505,중동,sec
27260112,35.8238,128.6343,지산동,sec
27260110,35.815458,128.61515,파동,sec
27260107,35.8406,128.6321,황금동,sec
27110138,35.869199,128.586085,계산동1가,sec
27110139,35.867799,128.588425,계산동2가,sec
27110122,35.8695,128.5982,공평동,sec
27110125,35.873286,128.598609,교동,sec
27110156,35.8614,128.585,남산동,sec
27110137,35.868429,128.589569,남성로,sec
27110117,35.869607,128.593588,남일동,sec
27110155,35.8757,128.5792,달성동,sec
27110157,35.8595,128.6025,대봉동,sec
27110154,35.86619,128.577125,대신동,sec
27110147,35.873028,128.591402,대안동,sec
27110112,35.86591,128.59285,덕산동,sec
27110129,35.876568,128.583356,도원동,sec
27110120,35.872028,128.598345,동문동,sec
27110140,35.8685,128.5843,동산동,sec
27110148,35.873253,128.595752,동성로1가,sec
27110123,35.870152,128.595744,동성로2가,sec
27110119,35.8677,128.5938,동성로3가,sec
27110101,35.8725,128.6035,동인동1가,sec
27110102,35.8692,128.6033,동인동2가,sec
27110103,35.872,128.6097,동인동3가,sec
27110104,35.8677,128.6103,동인동4가,sec
27110116,35.869776,128.59272,동일동,sec
27110121,35.871486,128.5973,문화동,sec
27110108,35.8631,128.5973,봉산동,sec
27110153,35.873036,128.589655,북내동,sec
27110150,35.874322,128.593477,북성로1가,sec
27110146,35.873921,128.589254,북성로2가,sec
27110115,35.870234,128.594493,사일동,sec
27110105,35.8662,128.5984,삼덕동1가,sec
27110106,35.8656,128.6028,삼덕동2가,sec
27110107,35.86439,128.609163,삼덕동3가,sec
27110127,35.873737,128.597859,상덕동,sec
27110110,35.870434,128.590011,상서동,sec
27110145,35.872602,128.588679,서내동,sec
27110144,35.871664,128.589097,서문로1가,sec
27110141,35.871025,128.586005,서문로2가,sec
27110134,35.872542,128.587034,서성로1가,sec
27110142,35.870089,128.587276,서성로2가,sec
27110133,35.873144,128.585763,서야동,sec
27110111,35.869732,128.589193,수동,sec
27110130,35.8753,128.585,수창동,sec
27110135,35.871913,128.582548,시장북로,sec
27110128,35.8725,128.599239,완전동,sec
27110126,35.874009,128.596641,용덕동,sec
27110132,35.872892,128.58415,인교동,sec
27110109,35.868738,128.590565,장관동,sec
27110118,35.870699,128.592795,전동,sec
27110113,35.870423,128.591154,종로1가,sec
27110114,35.868401,128.591936,종로2가,sec
27110124,35.874803,128.598138,태평로1가,sec
27110149,35.875599,128.592663,태평로2가,sec
27110131,35.876815,128.587437,태평로3가,sec
27110143,35.871805,128.593198,포정동,sec
27110136,35.870218,128.588133,하서동,sec
27110152,35.873201,128.593628,향촌동,sec
27110151,35.873144,128.59485,화전동,sec
27720250,36.239943,128.568756,군위읍,sec
27720330,36.10089,128.664188,부계면,sec
27720360,36.123107,128.694863,산성면,sec
27720370,36.151807,128.818975,삼국유사면,sec
27720310,36.254908,128.475288,소보면,sec
27720340,36.194985,128.661788,우보면,sec
27720350,36.175818,128.715162,의흥면,sec
27720320,36.156865,128.5854,효령면,sec
31140112,35.5001,129.3558,고사동,sec
31140116,35.4756,129.3771,남화동,sec
31140105,35.5364,129.3165,달동,sec
31140103,35.5082,129.2998,두왕동,sec
31140119,35.512933,129.3749,매암동,sec
31140101,35.550033,129.265987,무거동,sec
31140111,35.4984,129.3349,부곡동,sec
31140106,35.544467,129.331938,삼산동,sec
31140110,35.5004,129.3169,상개동,sec
31140109,35.51285,129.335263,선암동,sec
31140113,35.4827,129.3466,성암동,sec
31140104,35.5354,129.3052,신정동,sec
31140108,35.5245,129.3296,야음동,sec
31140107,35.5252,129.3554,여천동,sec
31140102,35.535292,129.293862,옥동,sec
31140115,35.4823,129.3626,용연동,sec
31140117,35.4894,129.3762,용잠동,sec
31140118,35.5052,129.373,장생포동,sec
31140114,35.4669,129.3613,황성동,sec
31170107,35.5513,129.4248,동부동,sec
31170105,35.5361,129.4434,미포동,sec
31170101,35.486207,129.423935,방어동,sec
31170108,35.532642,129.425811,서부동,sec
31170103,35.498076,129.426275,일산동,sec
31170104,35.513175,129.4322,전하동,sec
31170106,35.5577,129.4491,주전동,sec
31170102,35.493768,129.424563,화정동,sec
31200104,35.6058,129.3069,가대동,sec
31200112,35.6044,129.4518,구유동,sec
31200109,35.632999,129.312662,달천동,sec
31200116,35.5931,129.451,당사동,sec
31200115,35.6482,129.4054,대안동,sec
31200103,35.6512,129.3701,매곡동,sec
31200120,35.5491,129.3625,명촌동,sec
31200111,35.6179,129.4078,무룡동,sec
31200118,35.63,129.4262,산하동,sec
31200107,35.6182,129.3349,상안동,sec
31200126,35.594833,129.357563,송정동,sec
31200110,35.603799,129.333275,시례동,sec
31200114,35.647,129.4373,신명동,sec
31200105,35.6381,129.3475,신천동,sec
31200117,35.595599,129.41885,신현동,sec
31200124,35.545942,129.38545,양정동,sec
31200119,35.5759,129.426175,어물동,sec
31200122,35.5814,129.3781,연암동,sec
31200127,35.526925,129.3991,염포동,sec
31200113,35.6158,129.4432,정자동,sec
31200106,35.6622,129.3509,중산동,sec
31200121,35.568192,129.3567,진장동,sec
31200101,35.6164,129.3671,창평동,sec
31200108,35.6493,129.3219,천곡동,sec
31200102,35.6275,129.3643,호계동,sec
31200125,35.5926,129.3766,화봉동,sec
31200123,35.577792,129.361,효문동,sec
31710360,35.654342,129.201164,두동면,sec
31710370,35.6435,129.158905,두서면,sec
31710259,35.568951,129.230138,범서읍,sec
31710265,35.536986,129.108938,삼남읍,sec
31710400,35.522133,129.156962,삼동면,sec
31710380,35.590515,129.091325,상북면,sec
31710310,35.349312,129.326261,서생면,sec
31710253,35.569449,129.125686,언양읍,sec
31710250,35.434635,129.31465,온산읍,sec
31710256,35.419013,129.28065,온양읍,sec
31710340,35.466176,129.209588,웅촌면,sec
31710262,35.493193,129.306038,청량읍,sec
31110107,35.562908,129.316,교동,sec
31110115,35.5682,129.3474,남외동,sec
31110112,35.556292,129.275675,다운동,sec
31110113,35.578391,129.349057,동동,sec
31110118,35.5585,129.344,반구동,sec
31110103,35.5651,129.329,복산동,sec
31110104,35.560608,129.3213,북정동,sec
31110114,35.578483,129.343063,서동,sec
31110106,35.556658,129.320012,성남동,sec
31110109,35.5802,129.3095,성안동,sec
31110117,35.570433,129.337063,약사동,sec
31110105,35.557542,129.32405,옥교동,sec
31110108,35.554783,129.312388,우정동,sec
31110110,35.5675,129.2938,유곡동,sec
31110116,35.5913,129.3376,장현동,sec
31110111,35.556542,129.3045,태화동,sec
31110102,35.5554,129.3284,학산동,sec
31110101,35.55535,129.334675,학성동,sec
36110105,36.471418,127.246634,가람동,sec
36110112,36.51723,127.236034,고운동,sec
36110340,36.462913,127.289505,금남면,sec
36110107,36.486603,127.264252,나성동,sec
36110120,36.528882,127.291952,누리동,sec
36110122,36.53467,127.321422,다솜동,sec
36110109,36.493891,127.243908,다정동,sec
36110104,36.470083,127.274489,대평동,sec
36110114,36.515855,127.261988,도담동,sec
36110101,36.491407,127.310367,반곡동,sec
36110103,36.478247,127.2888,보람동,sec
36110330,36.528746,127.381015,부강면,sec
36110115,36.533612,127.256426,산울동,sec
36110108,36.484415,127.24917,새롬동,sec
36110119,36.503522,127.290738,세종동,sec
36110102,36.485005,127.300692,소담동,sec
36110390,36.711399,127.167834,소정면,sec
36110113,36.51719,127.250774,아름동,sec
36110110,36.500811,127.265439,어진동,sec
36110310,36.507777,127.279799,연기면,sec
36110320,36.550172,127.330047,연동면,sec
36110360,36.583436,127.247939,연서면,sec
36110123,36.538978,127.309153,용호동,sec
36110350,36.507222,127.207236,장군면,sec
36110380,36.656323,127.253865,전동면,sec
36110370,36.655091,127.199423,전의면,sec
36110250,36.591257,127.292639,조치원읍,sec
36110111,36.503818,127.247488,종촌동,sec
36110118,36.499226,127.329209,집현동,sec
36110121,36.535249,127.275579,한별동,sec
36110106,36.477015,127.254352,한솔동,sec
36110117,36.525098,127.330385,합강동,sec
36110116,36.526096,127.270179,해밀동,sec
29200131,35.1999,126.7794,고룡동,sec
29200135,35.2414,126.7467,광산동,sec
29200167,35.1783,126.726,남산동,sec
29200162,35.1303,126.6606,내산동,sec
29200163,35.1374,126.6725,대산동,sec
29200176,35.1815,126.6708,덕림동,sec
29200156,35.1553,126.7045,도덕동,sec
29200102,35.129499,126.79165,도산동,sec
29200113,35.2128,126.8214,도천동,sec
29200103,35.1201,126.8052,도호동,sec
29200178,35.2075,126.6914,동림동,sec
29200154,35.1211,126.7174,동산동,sec
29200175,35.1804,126.6876,동호동,sec
29200133,35.2231,126.7612,두정동,sec
29200129,35.1845,126.7624,등임동,sec
29200174,35.1814,126.7012,명도동,sec
29200153,35.1255,126.7203,명화동,sec
29200111,35.1711,126.7523,박호동,sec
29200143,35.1126,126.7817,복룡동,sec
29200140,35.0852,126.779,본덕동,sec
29200173,35.1805,126.7124,북산동,sec
29200112,35.222035,126.824338,비아동,sec
29200137,35.2145,126.7282,사호동,sec
29200130,35.198876,126.765463,산막동,sec
29200169,35.1865,126.7474,산수동,sec
29200117,35.205301,126.849813,산월동,sec
29200127,35.172,126.7948,산정동,sec
29200160,35.1598,126.6728,삼거동,sec
29200166,35.16219,126.697525,삼도동,sec
29200105,35.1572,126.7514,서봉동,sec
29200170,35.2002,126.7457,선동,sec
29200107,35.150699,126.773513,선암동,sec
29200108,35.1544,126.7963,소촌동,sec
29200144,35.1068,126.795,송대동,sec
29200157,35.1637,126.7212,송산동,sec
29200101,35.13554,126.798475,송정동,sec
29200148,35.14119,126.775988,송촌동,sec
29200168,35.1803,126.7363,송치동,sec
29200164,35.1156,126.6769,송학동,sec
29200114,35.199,126.8304,수완동,sec
29200119,35.181635,126.827625,신가동,sec
29200165,35.1152,126.6994,신동,sec
29200132,35.2205,126.7769,신룡동,sec
29200118,35.190008,126.846253,신창동,sec
29200104,35.134,126.816,신촌동,sec
29200116,35.2191,126.8477,쌍암동,sec
29200121,35.215,126.8042,안청동,sec
29200161,35.1553,126.6603,양동,sec
29200177,35.1985,126.6897,양산동,sec
29200155,35.1135,126.7502,연산동,sec
29200136,35.2358,126.7297,오산동,sec
29200202,35.2021,126.7998,오선동,sec
29200159,35.1516,126.6923,오운동,sec
29200145,35.128115,126.7612,옥동,sec
29200172,35.2002,126.7137,왕동,sec
29200142,35.1055,126.7613,요기동,sec
29200151,35.1307,126.7373,용곡동,sec
29200150,35.1343,126.751,용동,sec
29200141,35.0769,126.776538,용봉동,sec
29200109,35.15784,126.809425,우산동,sec
29200120,35.173085,126.8219,운남동,sec
29200106,35.1622,126.7738,운수동,sec
29200115,35.2134,126.8379,월계동,sec
29200128,35.1716,126.8102,월곡동,sec
29200146,35.1219,126.7737,월전동,sec
29200139,35.0957,126.788,유계동,sec
29200134,35.219626,126.744788,임곡동,sec
29200123,35.194751,126.8083,장덕동,sec
29200147,35.1342,126.7751,장록동,sec
29200126,35.1822,126.7822,장수동,sec
29200171,35.1954,126.7327,지산동,sec
29200152,35.1373,126.7171,지정동,sec
29200149,35.1426,126.7555,지죽동,sec
29200158,35.1511,126.7279,지평동,sec
29200122,35.2125,126.7888,진곡동,sec
29200125,35.184976,126.793913,하남동,sec
29200138,35.0984,126.765,하산동,sec
29200110,35.1175,126.7881,황룡동,sec
29200124,35.1827,126.8079,흑석동,sec
29155102,35.1469,126.9098,구동,sec
29155116,35.0562,126.808,구소동,sec
29155107,35.0995,126.9073,노대동,sec
29155128,35.0729,126.821,대지동,sec
29155109,35.0891,126.9002,덕남동,sec
29155118,35.0761,126.845587,도금동,sec
29155114,35.1312,126.9198,방림동,sec
29155105,35.138674,126.903763,백운동,sec
29155115,35.124365,126.9141,봉선동,sec
29155101,35.1436,126.9127,사동,sec
29155103,35.1439,126.9069,서동,sec
29155124,35.0852,126.8173,석정동,sec
29155112,35.1098,126.8835,송하동,sec
29155119,35.061,126.7754,승촌동,sec
29155125,35.0586,126.8163,신장동,sec
29155121,35.0905,126.8324,압촌동,sec
29155126,35.0874,126.879,양과동,sec
29155113,35.13689,126.915663,양림동,sec
29155117,35.0653,126.788875,양촌동,sec
29155129,35.0927,126.8473,원산동,sec
29155104,35.14754,126.902613,월산동,sec
29155130,35.0658,126.8067,월성동,sec
29155127,35.089,126.8566,이장동,sec
29155111,35.1016,126.87,임암동,sec
29155106,35.1318,126.8983,주월동,sec
29155120,35.0874,126.8411,지석동,sec
29155108,35.1152,126.9026,진월동,sec
29155123,35.0703,126.837,칠석동,sec
29155110,35.0993,126.8871,행암동,sec
29155122,35.0831,126.8002,화장동,sec
29110109,35.1591,126.9207,계림동,sec
29110113,35.1471,126.9208,광산동,sec
29110106,35.1507,126.9184,궁동,sec
29110131,35.147788,126.919158,금남로1가,sec
29110132,35.148752,126.917464,금남로2가,sec
29110133,35.149946,126.916225,금남로3가,sec
29110134,35.1508,126.9149,금남로4가,sec
29110102,35.152782,126.9122,금남로5가,sec
29110114,35.1433,126.9177,금동,sec
29110112,35.1442,126.9201,남동,sec
29110125,35.0871,126.9348,내남동,sec
29110105,35.1492,126.9202,대의동,sec
29110101,35.154,126.9154,대인동,sec
29110108,35.151182,126.92515,동명동,sec
29110116,35.145374,126.9151,불로동,sec
29110110,35.1574,126.9354,산수동,sec
29110118,35.1422,126.9306,서석동,sec
29110124,35.0847,126.9525,선교동,sec
29110119,35.1189,126.9436,소태동,sec
29110104,35.150437,126.909636,수기동,sec
29110126,35.1128,126.9244,용산동,sec
29110120,35.1054,126.9732,용연동,sec
29110121,35.1283,126.967,운림동,sec
29110123,35.1025,126.9416,월남동,sec
29110107,35.1489,126.9231,장동,sec
29110111,35.1487,126.9425,지산동,sec
29110127,35.147167,126.917872,충장로1가,sec
29110128,35.148048,126.916498,충장로2가,sec
29110129,35.148845,126.915133,충장로3가,sec
29110130,35.149515,126.913485,충장로4가,sec
29110103,35.151429,126.911169,충장로5가,sec
29110122,35.134415,126.924162,학동,sec
29110115,35.1475,126.9129,호남동,sec
29110117,35.147347,126.915497,황금동,sec
29170113,35.183485,126.940325,각화동,sec
29170120,35.1497,126.9952,금곡동,sec
29170103,35.1541,126.9063,누문동,sec
29170140,35.2287,126.8621,대촌동,sec
29170119,35.1799,126.9839,덕의동,sec
29170108,35.186943,126.866863,동림동,sec
29170114,35.1699,126.9351,두암동,sec
29170121,35.2013,126.9533,망월동,sec
29170117,35.189643,126.892038,매곡동,sec
29170112,35.1878,126.9258,문흥동,sec
29170126,35.222251,126.882,본촌동,sec
29170104,35.1559,126.9096,북동,sec
29170116,35.199301,126.8995,삼각동,sec
29170138,35.2285,126.9036,생용동,sec
29170134,35.2422,126.9258,수곡동,sec
29170106,35.167451,126.898738,신안동,sec
29170130,35.215,126.8639,신용동,sec
29170128,35.2023,126.8757,양산동,sec
29170129,35.2003,126.8632,연제동,sec
29170141,35.2257,126.8513,오룡동,sec
29170115,35.1921,126.9101,오치동,sec
29170137,35.2518,126.9033,용강동,sec
29170131,35.2218,126.8717,용두동,sec
29170107,35.180243,126.901313,용봉동,sec
29170136,35.2413,126.8932,용전동,sec
29170110,35.170301,126.920913,우산동,sec
29170109,35.1803,126.8767,운암동,sec
29170125,35.2253,126.9437,운정동,sec
29170139,35.2399,126.8655,월출동,sec
29170102,35.1591,126.9048,유동,sec
29170127,35.206026,126.897238,일곡동,sec
29170105,35.165882,126.894313,임동,sec
29170124,35.2124,126.9289,장등동,sec
29170101,35.1666,126.9107,중흥동,sec
29170132,35.2335,126.8808,지야동,sec
29170122,35.1713,126.9626,청풍동,sec
29170118,35.1773,127.006,충효동,sec
29170133,35.2476,126.927,태령동,sec
29170111,35.164399,126.923163,풍향동,sec
29170123,35.1509,126.9685,화암동,sec
29170135,35.2373,126.9151,효령동,sec
29140115,35.164324,126.88035,광천동,sec
29140130,35.1318,126.8539,금호동,sec
29140121,35.159,126.8729,내방동,sec
29140106,35.154674,126.88945,농성동,sec
29140117,35.1666,126.8356,덕흥동,sec
29140133,35.171306,126.864736,동천동,sec
29140131,35.1428,126.8418,마륵동,sec
29140132,35.1175,126.8534,매월동,sec
29140129,35.133399,126.83015,벽진동,sec
29140125,35.114565,126.830225,서창동,sec
29140126,35.1196,126.8337,세하동,sec
29140118,35.1546,126.863,쌍촌동,sec
29140104,35.154807,126.9011,양동,sec
29140127,35.1001,126.816,용두동,sec
29140116,35.166465,126.853775,유촌동,sec
29140120,35.14994,126.843325,치평동,sec
29140128,35.12479,126.878913,풍암동,sec
29140119,35.1467,126.8787,화정동,sec
51150340,37.728079,128.954188,강동면,sec
51150113,37.7939,128.9172,강문동,sec
51150115,37.7732,128.941225,견소동,sec
51150110,37.7693,128.8883,교동,sec
51150330,37.718329,128.880008,구정면,sec
51150106,37.753508,128.8957,금학동,sec
51150136,37.7907,128.8764,난곡동,sec
51150102,37.7493,128.8882,남문동,sec
51150130,37.7593,128.9544,남항진동,sec
51150116,37.739001,128.88095,내곡동,sec
51150121,37.743585,128.903638,노암동,sec
51150120,37.7204,128.9007,담산동,sec
51150134,37.7927,128.8526,대전동,sec
51150127,37.7645,128.9287,두산동,sec
51150103,37.751101,128.891506,명주동,sec
51150119,37.7232,128.9119,박월동,sec
51150129,37.7597,128.94215,병산동,sec
51150360,37.823517,128.848713,사천면,sec
51150108,37.7522,128.8984,성남동,sec
51150104,37.752444,128.893387,성내동,sec
51150310,37.718711,128.83205,성산면,sec
51150114,37.774472,128.927577,송정동,sec
51150124,37.7302,128.9232,신석동,sec
51150138,37.8063,128.8987,안현동,sec
51150370,37.86014,128.8369,연곡면,sec
51150350,37.612677,129.037933,옥계면,sec
51150109,37.760175,128.90295,옥천동,sec
51150320,37.672735,128.8378,왕산면,sec
51150107,37.7537,128.8908,용강동,sec
51150139,37.7275,128.935,운산동,sec
51150135,37.7892,128.8966,운정동,sec
51150123,37.7441,128.9424,월호평동,sec
51150122,37.7369,128.9134,유산동,sec
51150131,37.7671,128.8582,유천동,sec
51150105,37.7558,128.8943,임당동,sec
51150125,37.7589,128.9178,입암동,sec
51150118,37.7285,128.8939,장현동,sec
51150137,37.7984,128.8926,저동,sec
51150250,37.892631,128.827033,주문진읍,sec
51150133,37.7822,128.8698,죽헌동,sec
51150132,37.7739,128.8719,지변동,sec
51150126,37.7451,128.9247,청량동,sec
51150112,37.791883,128.915963,초당동,sec
51150111,37.7728,128.9082,포남동,sec
51150128,37.7548,128.9319,학동,sec
51150101,37.748318,128.883663,홍제동,sec
51150117,37.7374,128.8648,회산동,sec
51820250,38.378381,128.467002,간성읍,sec
51820253,38.435775,128.452989,거진읍,sec
51820340,38.467708,128.296538,수동면,sec
51820320,38.328825,128.525538,죽왕면,sec
51820330,38.257167,128.558575,토성면,sec
51820310,38.494266,128.42779,현내면,sec
51170132,37.5712,129.0614,괴란동,sec
51170113,37.4838,129.1307,구미동,sec
51170115,37.4809,129.1438,구호동,sec
51170119,37.4686,129.0872,귀운동,sec
51170108,37.4856,129.1131,나안동,sec
51170122,37.4585,129.1293,내동,sec
51170116,37.4686,129.1184,단봉동,sec
51170136,37.502,129.0155,달방동,sec
51170120,37.4699,129.1334,대구동,sec
51170128,37.5753,129.1115,대진동,sec
51170107,37.4934,129.1007,동회동,sec
51170133,37.5545,129.0673,만우동,sec
51170129,37.55805,129.104762,망상동,sec
51170123,37.5555,129.1146,묵호진동,sec
51170111,37.548425,129.107913,발한동,sec
51170110,37.536767,129.104913,부곡동,sec
51170112,37.483762,129.125004,북평동,sec
51170135,37.528,129.0467,비천동,sec
51170124,37.490651,129.068325,삼화동,sec
51170103,37.499735,129.128603,송정동,sec
51170109,37.4783,129.0751,쇄운동,sec
51170134,37.5175,129.0004,신흥동,sec
51170130,37.5804,129.0807,심곡동,sec
51170127,37.5658,129.1128,어달동,sec
51170104,37.5069,129.1204,용정동,sec
51170125,37.4827,129.007,이기동,sec
51170118,37.4778,129.0985,이도동,sec
51170126,37.4998,129.052,이로동,sec
51170117,37.4675,129.1048,지가동,sec
51170105,37.505,129.0869,지흥동,sec
51170101,37.5229,129.116225,천곡동,sec
51170131,37.5705,129.0907,초구동,sec
51170114,37.4743,129.1518,추암동,sec
51170102,37.5321,129.0991,평릉동,sec
51170121,37.4644,129.1258,호현동,sec
51170106,37.4981,129.1102,효가동,sec
51230350,37.149763,129.205182,가곡면,sec
51230107,37.4639,129.1624,갈천동,sec
51230117,37.4286,129.1472,건지동,sec
51230106,37.447935,129.1646,교동,sec
51230310,37.379307,129.225763,근덕면,sec
51230127,37.418,129.1453,근산동,sec
51230120,37.442568,129.16845,남양동,sec
51230330,37.347774,129.164038,노곡면,sec
51230105,37.446718,129.163625,당저동,sec
51230114,37.4468,129.1005,도경동,sec
51230250,37.236418,129.045212,도계읍,sec
51230113,37.4491,129.1196,등봉동,sec
51230110,37.454,129.1572,마달동,sec
51230115,37.423,129.1341,마평동,sec
51230340,37.417587,129.11247,미로면,sec
51230121,37.4263,129.1718,사직동,sec
51230119,37.4324,129.1559,성남동,sec
51230101,37.446201,129.162913,성내동,sec
51230102,37.4435,129.157,성북동,sec
51230360,37.349609,129.083175,신기면,sec
51230122,37.4222,129.1896,오분동,sec
51230116,37.4356,129.141,오사동,sec
51230109,37.4575,129.1457,우지동,sec
51230118,37.4424,129.1501,원당동,sec
51230253,37.176468,129.3357,원덕읍,sec
51230103,37.439816,129.161872,읍상동,sec
51230104,37.441441,129.162954,읍중동,sec
51230111,37.4428,129.1401,자원동,sec
51230123,37.4133,129.1767,적노동,sec
51230125,37.4399,129.1776,정상동,sec
51230126,37.4414,129.1891,정하동,sec
51230124,37.3987,129.1536,조비동,sec
51230108,37.4707,129.1576,증산동,sec
51230112,37.4497,129.1325,평전동,sec
51230320,37.349457,128.943038,하장면,sec
51210106,38.202485,128.5827,교동,sec
51210104,38.206951,128.58825,금호동,sec
51210107,38.19706,128.576288,노학동,sec
51210110,38.162792,128.604893,대포동,sec
51210111,38.1687,128.5557,도문동,sec
51210102,38.212693,128.595725,동명동,sec
51210112,38.1614,128.5039,설악동,sec
51210101,38.223693,128.588213,영랑동,sec
51210113,38.216696,128.556754,장사동,sec
51210108,38.187618,128.590788,조양동,sec
51210103,38.2059,128.5906,중앙동,sec
51210105,38.2029,128.5841,청학동,sec
51210109,38.197976,128.595513,청호동,sec
51800315,38.108499,128.034525,국토정중앙면,sec
51800320,38.202337,128.043549,동면,sec
51800330,38.208834,127.949358,방산면,sec
51800250,38.107721,127.990582,양구읍,sec
51800340,38.285086,128.13715,해안면,sec
51830350,38.14994,128.607587,강현면,sec
51830310,38.071542,128.585238,서면,sec
51830320,38.060533,128.6411,손양면,sec
51830250,38.080658,128.624,양양읍,sec
51830340,37.969226,128.759488,현남면,sec
51830330,38.019005,128.723076,현북면,sec
51750325,37.125632,128.570112,김삿갓면,sec
51750340,37.186576,128.404462,남면,sec
51750380,37.288327,128.268592,무릉도원면,sec
51750330,37.254517,128.455125,북면,sec
51750312,37.14529,128.6805,산솔면,sec
51750253,37.127074,128.8269,상동읍,sec
51750250,37.187443,128.4661,영월읍,sec
51750360,37.272183,128.268925,주천면,sec
51750355,37.236793,128.328387,한반도면,sec
51130118,37.3876,127.9249,가현동,sec
51130105,37.340224,127.955663,개운동,sec
51130116,37.3069,127.986,관설동,sec
51130360,37.170011,127.88482,귀래면,sec
51130110,37.352632,127.934412,단계동,sec
51130107,37.326083,127.960313,단구동,sec
51130106,37.3334,127.9429,명륜동,sec
51130115,37.33744,127.926475,무실동,sec
51130250,37.312583,127.817213,문막읍,sec
51130117,37.3256,127.995,반곡동,sec
51130113,37.347574,127.956963,봉산동,sec
51130350,37.207618,127.750263,부론면,sec
51130310,37.41796,128.002388,소초면,sec
51130390,37.230718,128.079475,신림면,sec
51130111,37.371415,127.940012,우산동,sec
51130103,37.3442,127.9468,원동,sec
51130104,37.346107,127.9544,인동,sec
51130108,37.34969,127.9421,일산동,sec
51130101,37.352882,127.947475,중앙동,sec
51130330,37.36214,127.84025,지정면,sec
51130112,37.3797,127.9557,태장동,sec
51130380,37.318642,127.96635,판부면,sec
51130102,37.3503,127.9531,평원동,sec
51130109,37.353499,127.944163,학성동,sec
51130114,37.34384,127.99445,행구동,sec
51130320,37.411007,127.925675,호저면,sec
51130370,37.302917,127.9211,흥업면,sec
51810330,37.955601,128.319175,기린면,sec
51810310,37.965968,128.083362,남면,sec
51810320,38.124674,128.204138,북면,sec
51810350,37.874132,128.25995,상남면,sec
51810340,38.218376,128.208513,서화면,sec
51810250,38.070392,128.172188,인제읍,sec
51770253,37.208693,128.84305,고한읍,sec
51770320,37.268808,128.740588,남면,sec
51770340,37.448883,128.670474,북평면,sec
51770256,37.227743,128.821788,사북읍,sec
51770259,37.212202,128.642071,신동읍,sec
51770370,37.470635,128.720513,여량면,sec
51770350,37.494843,128.852062,임계면,sec
51770250,37.379774,128.661652,정선읍,sec
51770360,37.34039,128.787875,화암면,sec
51780256,38.147588,127.308085,갈말읍,sec
51780320,38.237046,127.471129,근남면,sec
51780340,38.306391,127.531218,근동면,sec
51780330,38.312924,127.402956,근북면,sec
51780253,38.249552,127.421408,김화읍,sec
51780259,38.206793,127.208375,동송읍,sec
51780310,38.164655,127.415674,서면,sec
51780360,38.292599,127.649362,원남면,sec
51780350,38.315698,127.749341,원동면,sec
51780370,38.308802,127.843081,임남면,sec
51780250,38.212153,127.21303,철원읍,sec
51110122,37.880649,127.73615,교동,sec
51110117,37.88064,127.71215,근화동,sec
51110103,37.879174,127.724238,낙원동,sec
51110340,37.732201,127.599725,남면,sec
51110400,37.791845,127.646125,남산면,sec
51110390,37.848032,127.761062,동내면,sec
51110310,37.910276,127.781058,동면,sec
51110320,37.752312,127.796237,동산면,sec
51110101,37.886,127.7299,봉의동,sec
51110380,37.987293,127.886046,북산면,sec
51110119,37.915774,127.72185,사농동,sec
51110360,38.029908,127.640738,사북면,sec
51110125,37.8671,127.6935,삼천동,sec
51110350,37.898699,127.692688,서면,sec
51110124,37.858507,127.742263,석사동,sec
51110113,37.8918,127.7298,소양로1가,sec
51110114,37.8866,127.7248,소양로2가,sec
51110115,37.8818,127.7233,소양로3가,sec
51110116,37.878007,127.720325,소양로4가,sec
51110127,37.857374,127.688275,송암동,sec
51110128,37.9317,127.7263,신동,sec
51110330,37.817675,127.715975,신동면,sec
51110250,37.925666,127.746174,신북읍,sec
51110111,37.8744,127.7244,약사동,sec
51110107,37.88435,127.73283,옥천동,sec
51110121,37.8583,127.7153,온의동,sec
51110102,37.882907,127.727563,요선동,sec
51110118,37.9088,127.7392,우두동,sec
